stop_id,stop_code,stop_name,stop_lat,stop_lon,stop_desc,wheelchair_boarding,platform_code,location_type,parent_station,stop_timezone,stop_url,tts_stop_name,zone_id
346,346,Westbound E University Avenue @ SE 21st Street,29.652022,-82.297479,Westbound E University AVE @ Nearside SE 21st ST,,,0,,,,,
1116,1116,Valwood Neighborhood,29.604319,-82.422747,Southbound SW 75th ST @ Nearside SW 53rd PL,,,0,,,,,
1543,1543,NW 2nd St @ NW 16th Ave Northbound,29.666315,-82.326527,Northbound NW 2nd St @ Nearside NW 16th Ave,,,0,,,,,
194,194,Eastbound SW 2nd Avenue @ SW 26th Street,29.650347,-82.361278,Eastbound SW 2nd AVE @ Nearside SW 26th ST,,,0,,,,,
1608,1608,Shell Rock Villas,29.644497,-82.409208,Southbound SW 61st St @ Nearside SW 8th Lane,,,0,,,,,
1290,1290,Alachua County Courthouse,29.650198,-82.325153,Eastbound SW 2nd AVE @ Nearside S Main ST,,,0,,,,,
300,300,Fast Eddie's Restaurant,29.650775,-82.305763,Northbound SE 15th ST @ Nearside SE 1st AVE,,,0,,,,,
381,381,Altrusa House of Gainesville,29.685711,-82.349514,Eastbound NW 36th AVE @ Nearside NE 20th ST,,,0,,,,,
187,187,Community Foundation of North Central Florida,29.653333,-82.383899,Eastbound Newberry RD @ Nearside NW 39th RD,,,0,,,,,
1557,1557,The Ridge @ SW 38th TER northbound,29.631626,-82.380875,Northbound SW 38th TER @ Farside SW 24th AVE,,,0,,,,,
1506,1506,The Trophy Shop,29.657597,-82.338892,Westbound NW 7th Ave @ Nearside NW 13th St,,,0,,,,,
157,157,Westgate Shopping Center,29.652293,-82.369628,Westbound W University AVE @ Nearside NW 32nd ST,,,0,,,,,
111,111,Southbound SE 15th Street @ SE 4th Avenue,29.648383,-82.305943,Southbound SE 15th ST @ Nearside SE 4th AVE,,,0,,,,,
436,436,Applebee's @ NW 13th Street,29.661331,-82.339275,Southbound NW 13th ST @ Nearside NW 10th AVE,,,0,,,,,
518,518,Santa Fe College @ NW 83rd Street,29.675243,-82.430108,Northbound NW 83rd ST @ Farside NW 23rd AVE,,,0,,,,,
1169,1169,Northwood Pines Neighborhood,29.704958,-82.359975,Northbound NW 34th ST @ Nearside NW 25th TER,,,0,,,,,
1056,1056,Linton Oaks Neighborhood,29.640571,-82.407144,Northbound SW 61st ST @ Farside SW 20th AVE,,,0,,,,,
150,150,University Lutheran Church,29.652182,-82.347693,Westbound W University AVE @ Nearside NW 19th ST,,,0,,,,,
528,528,Northwest Baptist Church,29.674028,-82.401846,Eastbound NW 23rd AVE @ Nearside NW 55th ST,,,0,,,,,
535,535,B'Nai Israel School & Day Care,29.670727,-82.381721,Eastbound NW 16th BLVD @ Nearside NW 38th TER,,,0,,,,,
461,461,University Club Apartments,29.625831,-82.356333,Northbound SW 23rd TER @ Farside SW 28th PL,,,0,,,,,
1475,1475,President's Park,29.65054,-82.355435,Westbound SW 2nd Ave @ Nearside SW 23rd St,,,0,,,,,
773,773,Arbor Park Apartments,29.636143,-82.329123,Eastbound SW 16th AVE @ Farside SW 6th ST,,,0,,,,,
1427,1427,Holy Faith Catholic Church,29.658408,-82.389177,Northbound NW 43rd ST @ Nearside NW 8th AVE,,,0,,,,,
1141,1141,Wilmot Gardens,29.639388,-82.349715,Eastbound Mowry RD @ Farside Gale Lemerand DR,,,0,,,,,
709,709,McCoy Court Apartments,29.672836,-82.319684,Northbound NE 2nd ST @ Nearside NE 23rd AVE,,,0,,,,,
46,46,Beaty Towers,29.644707,-82.34082,Eastbound Museum RD @ Nearside SW 13th ST,,,0,,,,,
932,932,UF Law School,29.650455,-82.359095,Westbound SW 2nd AVE @ Nearside SW 26th ST,,,0,,,,,
252,252,Plaza Verde - NW 23rd Avenue,29.673883,-82.341767,Eastbound NW 23rd AVE @ Farside NW 16th TER,,,0,,,,,
1494,1494,NE 15th St @ NE 20th Pl,29.67179,-82.305762,Northbound NE 15th St @ Farside NE 20th Pl,,,0,,,,,
206,206,AT&T Building,29.651934,-82.328047,Eastbound W University AVE @ Nearside W 3rd ST,,,0,,,,,
979,979,Landmark Woods Neighborhood,29.663281,-82.388917,Northbound NW 43rd ST @ Nearside NW 12th AVE,,,0,,,,,
369,369,CVS @ NW 13th Street,29.6664,-82.339045,Northbound NW 13th ST @ Nearside NW 16th AVE,,,0,,,,,
697,697,Masonic Temple,29.653697,-82.324896,Northbound N Main ST @ Farside NE 2nd AVE,,,0,,,,,
521,521,Santa Fe College,29.67778,-82.430533,Eastbound NW South RD @ Nearside NW 83rd ST,,,0,,,,,
1483,1483,aloft Hotel @ Hull Rd Eastbound,29.637276,-82.377895,Eastbound Hull Rd Farside SW 37th St,,,0,,,,,
1553,1553,Health Department,29.649168,-82.293379,Southbound SE 24th ST @ Farside SE 2nd AVE,,,0,,,,,
537,537,Willowcroft Neighborhood,29.667381,-82.374398,Eastbound NW 16th BLVD @ Farside NW 35th WAY,,,0,,,,,
599,599,Morningside Nature Center,29.651983,-82.279959,Westbound E University AVE @ Nearside SE 38th ST,,,0,,,,,
1397,1397,Westbound SW 24th Ave @ SW 61st St,29.639833,-82.406425,Westbound SW 24th AVE @ Farside SW 61st ST,,,0,,,,,
1341,1341,Enclave 4,29.622783,-82.366766,Eastbound Enclave Apartments @ Nearside Enclave A*,,,0,,,,,
1253,1253,Graham Hall,29.64581,-82.350257,Northbound Gale Lemerand DR @ Farside Museum RD,,,0,,,,,
1623,1623,SW 6th St nearside SW 5th Ave (southbound),29.6476299,-82.3313561,Southbound SW 6th St @ nearside SW 5th Ave,0,,0,,,,,
442,442,Southbound SW 13th Street @ Inner Road,29.647665,-82.339517,Southbound SW 13th ST @ Nearside Inner RD,,,0,,,,,
794,794,Sai Quick Stop,29.636379,-82.338066,Eastbound SW 16th AVE @ Farside SW 13th ST,,,0,,,,,
1486,1486,Campus Circle Apartments,29.636794,-82.380966,Southbound SW 38th TER @ Farside Hull RD,,,0,,,,,
1261,1261,Gardenia Garden Apartments,29.659264,-82.302637,Westbound NE 8th AVE @ Farside NE 17th DR,,,0,,,,,
241,241,Grace Presbyterian Church,29.681354,-82.339209,Southbound NW 13th ST @ Nearside NW 31st AVE,,,0,,,,,
757,757,Pointe 23 Apartments,29.673966,-82.317613,Westbound NE 23rd AVE @ Farside NE 7th TER,,,0,,,,,
736,736,Wesley United Methodist Church,29.674021,-82.33484,Westbound NW 23rd AVE @ Nearside NW 10th ST,,,0,,,,,
226,226,Oak Gate Apartments,29.6787889,-82.3306919,Northbound NW 6th ST @ Nearside NW 29th AVE,0,,0,,,,,
769,769,The Collier Companies,29.653764,-82.325126,Southbound N Main ST @ Nearside NW 2nd AVE,,,0,,,,,
1547,1547,Sam's Club,29.623178,-82.383566,Westbound SW 33rd PL @ Farside SW 37th Blvd,,,0,,,,,
414,414,Barnhill Clinic,29.702597,-82.365593,Southbound NW 34th ST @ Nearside NW 29th ST,,,0,,,,,
508,508,NW 23rd Ave NW 43rd St,29.673621,-82.387664,Westbound NW 16th BLVD @ Nearside NW 43rd ST,,,0,,,,,
444,444,University Housing Office,29.643892,-82.339427,Southbound SW 13th ST @ Nearside Diamond RD,,,0,,,,,
259,259,ALDI Food Market,29.687607,-82.338857,Northbound NW 13th ST @ Nearside NW 39th AVE,,,0,,,,,
1498,1498,NE 15th St @ NE 3rd Ave Farside,29.65342,-82.305914,Southbound NE 15th St @ Farside NE 3rd Ave,,,0,,,,,
695,695,Oakbrook Walk Condominiums,29.6383072,-82.3392012,Northbound SW 13th ST @ Nearside SW 14th Ave,0,,0,,,,,
1114,1114,Haile Plantation Neighborhood,29.609472,-82.422687,Southbound SW 75th ST @ Farside SW 46th BLVD,,,0,,,,,
1139,1139,Casablanca Apartments,29.619912,-82.361263,Westbound SW 35th PL @ Nearside SW 27th ST,,,0,,,,,
1352,1352,Colonial Oaks,29.6330892,-82.3892534,Northbound SW 43rd ST @ Nearside SW 21st PL,,,0,,,,,
590,590,Southbound SE 43rd Street @ E University Avenue,29.650918,-82.272493,Southbound SE 43rd ST @ Farside E University AVE,,,0,,,,,
1064,1064,Treebecka Park Apartments,29.638507,-82.411938,Westbound SW 20th Avenue Near SW 17th RD,,,0,,,,,
1323,1323,College Manor Apartments,29.650334,-82.337801,Westbound SW 2nd AVE @ Nearside SW 13th ST,,,0,,,,,
1311,1311,Depot Ave Farside SW 3rd St,29.6440734,-82.3284536,Westbound Depot AVE @ Farside SW 3rd ST,1,,0,,,,,
681,681,US 441 South,29.607556,-82.342145,Southbound SW 13th ST @ Farside Williston RD,,,0,,,,,
987,987,Millhopper Branch Library,29.682029,-82.388843,Northbound NW 43rd ST @ Farside NW 31st AVE,,,0,,,,,
216,216,Gainesville Police Department,29.659244,-82.330767,Northbound NW 6th ST @ Nearside NW 8th AVE,,,0,,,,,
39,39,The Bartram Apartments,29.633696,-82.358195,Eastbound Archer RD @ Farside SW 23rd DR,,,0,,,,,
1501,1501,NE 15th St @ NE 8th Ave,29.659135,-82.305768,Northbound NE 15th St @ Nearside NE 8th Ave,,,0,,,,,
1471,1471,Westgate Plaza,29.65216,-82.369357,Eastbound University Ave @ Nearside Nw 33rd Ct,,,0,,,,,
467,467,Cancer and Genetics Research,29.638769,-82.351411,Eastbound Mowry RD @ Nearside Gale Lemerand DR,,,0,,,,,
725,725,Southeast Car Agency,29.688578,-82.322195,Westbound NE 39th AVE @ Nearside NE 2nd WAY,,,0,,,,,
853,853,Northbound SE 11th Street @ SE 2nd Avenue,29.649885,-82.311313,Northbound SE 11th ST @ Nearside SE 2nd AVE,,,0,,,,,
579,579,Southbound NE 25th Street @ NE 6th Avenue,29.656705,-82.292423,Southbound NE 25th ST @ Nearside NE 6th AVE,,,0,,,,,
363,363,SW 13th Street & W University Avenue,29.651483,-82.339199,Northbound SW 13th ST @ Nearside W University AVE,,,0,,,,,
1034,1034,Madison Cove Apartments,29.609477,-82.401452,Westbound Archer RD @ Nearside SW 56th TER,,,0,,,,,
789,789,Sun Bay Apartments,29.6366194,-82.3324711,Westbound SW 16th AVE @ Farside SW 6th ST,0,,0,,,,,
687,687,Bivens Cove Apartments,29.622049,-82.339557,Northbound SW 13th ST @ Nearside SW 36th PL,,,0,,,,,
1472,1472,Mavis Tires,29.651788,-82.376171,Eastbound W University Ave @ Farside SW 36th St,,,0,,,,,
317,317,Northbound SE 35th Street @ SE 18th Ave,29.634715,-82.280703,Northbound SE 35th ST @ Nearside SE 18th AVE,,,0,,,,,
181,181,Millpond Apartments,29.657733,-82.395924,Eastbound Newberry RD @ Farside NW 50th BLVD,,,0,,,,,
275,275,NW 6th St @ NW 22nd Ave,29.67277,-82.330886,Southbound NW 6th ST @ Farside NW 22nd AVE,,,0,,,,,
796,796,Sun Bay Apartments,29.636394,-82.332541,Eastbound SW 16th AVE @ Nearside SW 6th ST,,,0,,,,,
195,195,University of Florida Law School,29.650334,-82.358847,Eastbound SW 2nd AVE @ Farside SW 23rd ST,,,0,,,,,
561,561,Eastbound NE 8th Avenue @ NE 11th Street,29.659281,-82.311524,Eastbound NE 8th AVE @ Farside NE 11th ST,,,0,,,,,
997,997,Robin Lane Neighborhood,29.688894,-82.422122,Westbound NW 39th AVE @ Nearside NW 75th ST,,,0,,,,,
1101,1101,Tower Plaza,29.658162,-82.422504,Southbound NW 75th ST @ Farside Newberry RD,,,0,,,,,
988,988,Monterey Apartments,29.685112,-82.388816,Northbound NW 43rd ST @ Farside NW 34th AVE,,,0,,,,,
463,463,University Commons,29.63073,-82.361441,Northbound SW 23rd TER @ Nearside Archer RD,,,0,,,,,
545,545,NW 16th Ave @ NW 17th St,29.666583,-82.344558,Eastbound NW 16th AVE @ Nearside NW 18th ST,,,0,,,,,
477,477,Cancer & Genetics Research Center,29.638915,-82.351413,Westbound Mowry RD @ Farside Gale Lemerand DR,,,0,,,,,
663,663,UF Health Pediatric ER,29.641034,-82.342661,Southbound Newell DR @ Nearside SW Archer RD,,,0,,,,,
486,486,Gator Place Condominiums,29.619053,-82.355743,Southbound SW 23rd TER @ Farside SW 35th PL,,,0,,,,,
1627,1627,SW 32nd Road @ The Vibe (Eastbound),29.6230419,-82.3922737,Eastbound SW 32nd Rd @ Farside SW 45th St,0,,0,,,,,
424,424,Girls Place of Alachua County,29.688408,-82.351597,Eastbound NW 39th AVE @ Nearside NW 21st ST,,,0,,,,,
1003,1003,The Arc,29.683896,-82.430216,Northbound NW 83rd ST @ Farside North RD,,,0,,,,,
92,92,Lincoln Estates,29.644442,-82.299354,Northbound SE 19th TER @ Nearside SE 8th AVE,,,0,,,,,
1085,1085,The Gardens Apartments,29.65307,-82.422247,Northbound SW 75th ST @ Nearside W University AVE,,,0,,,,,
37,37,Brandywine Apartments,29.630368,-82.365366,Eastbound Archer RD @ Farside Surge Area DR,,,0,,,,,
1611,1611,NW 2nd Lane @ NW 140th Way,29.655991,-82.490203,Eastbound NW 2nd Lane @ Nearside NW 140th Way,,,0,,,,,
685,685,The Landings Apartments,29.618673,-82.340078,Northbound SW 13th ST @ Farside SW 36th PL,,,0,,,,,
840,840,Hilton University of Florida Conference Center,29.637361,-82.372355,Northbound SW 34th ST @ Nearside Hull RD,,,0,,,,,
430,430,Misty Oaks Apartments,29.681387,-82.351572,Southbound NW 21st ST @ Nearside NW 31st AVE,,,0,,,,,
977,977,Millennium Center,29.65644,-82.38993,Northbound NW 43rd ST @ Farside Newberry RD,,,0,,,,,
391,391,Gethsemane Lutheran Church,29.691353,-82.372205,Northbound NW 34th ST @ Nearside NW 41st AVE,,,0,,,,,
758,758,David's BBQ,29.672851,-82.319841,Southbound NE 2nd ST @ Farside NE 23rd AVE,,,0,,,,,
517,517,Shenandoah Neighborhood,29.674211,-82.425049,Westbound NW 23rd AVE @ Nearside NW 77th TER,,,0,,,,,
367,367,Xerographic Copy Center,29.661041,-82.339065,Northbound NW 13th ST @ Nearside NW 10th AVE,,,0,,,,,
748,748,Fearnside Family Services Center,29.686575,-82.30585,Southbound NE 15th ST @ Farside NE 39th AVE,,,0,,,,,
630,630,Southbound NE 9th Street @ NE 3rd Avenue,29.65409,-82.314813,Southbound NE 9th ST @ Nearside NE 3rd AVE,,,0,,,,,
413,413,Northwood Oaks Neighborhood,29.704084,-82.362233,Southbound NW 34th ST @ Nearside NW 54th AVE,,,0,,,,,
1454,1454,Northeast Park,29.666505,-82.319449,Eastbound NE 16th AVE @ Farside NE 2 ST,,,0,,,,,
192,192,UF Golf Course,29.650343,-82.367421,Eastbound SW 2nd AVE @ Farside SW 30th ST,,,0,,,,,
1343,1343,Northside Park and Senior Recreational Center,29.707923,-82.354454,Southbound NW 34th ST @ Farside NW 58th AVE,,,0,,,,,
1430,1430,NE 39th Ave @ Waldo Rd,29.685182,-82.289826,Eastbound NW 39th AVE @ Nearside Waldo RD,,,0,,,,,
865,865,Department of Children and Families,29.666487,-82.313521,Eastbound NE 16th AVE @ Farside NE 9th ST,,,0,,,,,
449,449,Hideaway Apartments,29.613497,-82.362054,Westbound SW 40th TER @ Nearside SW 38th PL,,,0,,,,,
375,375,Brook Wood Terrace Neighborhood,29.676457,-82.347891,Westbound NW 23rd AVE @ Farside NW 16th TER,,,0,,,,,
1621,1621,SW 8th Ave @ Nearside SW 67th Terr,29.6450466,-82.4148202,Eastbound SW 8th Avenue @ Nearside SW 67th Terrace,0,,0,,,,,
562,562,Sunny Food Mart,29.659271,-82.310291,Eastbound NE 8th AVE @ Nearside NE 12th ST,,,0,,,,,
1145,1145,Fraternity Row II across Springs,29.6483148,-82.3575968,Eastbound Fraternity Row @ Farside W Fraternity R*,,,0,,,,,
282,282,D.R. Williams Fellowship Hall,29.656663,-82.330881,Southbound NW 6th ST @ Nearside NW 6th AVE,,,0,,,,,
453,453,Windsor Park Apartments,29.617383,-82.362563,Northbound SW 27th ST @ Nearside SW 35th PL,,,0,,,,,
1568,1568,The Lark Apartments,29.6400117,-82.3391741,Eastbound SW 13th St @ Nearside SW 11th Ave,0,,0,,,,,
1453,1453,St. Patrick Catholic Church,29.666624,-82.319375,Westbound NE 16th AVE @ Nearside NE 2 ST,,,0,,,,,
856,856,UF Health Family Medicine Eastside Northbound,29.655015,-82.309276,Northbound Waldo RD @ Farside NE 5th AVE,,,0,,,,,
1108,1108,Sunrise Subdivision (Southbound),29.635111,-82.4225495,Southbound SW 75th ST @ Farside SW 19th PL,0,,0,,,,,
22,22,Country Village,29.632046,-82.362534,Westbound Archer RD @ Farside SW 23rd TER,,,0,,,,,
684,684,UF Health Florida Recovery Center,29.615715,-82.340479,Northbound SW 13th ST @ Farside Williston RD,,,0,,,,,
1489,1489,Village Point 4,29.637488,-82.378817,Westbound Hull RD @ Nearside SW 38th TER,,,0,,,,,
934,934,Campus Church of Christ,29.650428,-82.36276,Westbound SW 2nd AVE @ Farside SW 26th ST,,,0,,,,,
775,775,Sweetwater on 16th Apartments,29.630299,-82.324122,Eastbound SE 16th AVE @ Nearside Williston RD,,,0,,,,,
531,531,Eastbound NW 23rd Avenue @ NW 46th Street,29.674028,-82.392449,Eastbound NW 23rd AVE @ Nearside NW 46th ST,,,0,,,,,
1440,1440,Mt. Olive Primitive Baptist Church,29.656032,-82.305922,Southbound NE 15th ST @ Farside NE 5th PL,,,0,,,,,
1011,1011,NW Grille Seafood,29.688528,-82.397711,Eastbound NW 39th AVE @ Nearside NW 51st ST,,,0,,,,,
955,955,Gainesville Place Apartments,29.627328,-82.370729,Northbound Old Archer RD @ Nearside SW 31st TER,,,0,,,,,
1391,1391,Metrocorp Center,29.688541,-82.386885,Eastbound NW 39th AVE @ Nearside NW 40th TER,,,0,,,,,
595,595,Lake Forest Trails Neighborhood,29.646171,-82.272391,Northbound SE 43rd ST @ Farside SE 6th AVE,,,0,,,,,
1089,1089,Harbor Cove Apartments,29.653187,-82.414991,Eastbound W University AVE @ Nearside NW 4th BLVD,,,0,,,,,
1057,1057,Linton Oaks Neighborhood @ SW 61st Street,29.643187,-82.40819,Northbound SW 61st ST @ Farside SW 10th PL,,,0,,,,,
743,743,Pine Forest Homes,29.6883,-82.322752,Eastbound NW 39th AVE @ Nearside NE 2nd ST,,,0,,,,,
1600,1600,Markets West,29.6381107,-82.4211188,Westbound SW 17th Rd Nearside SW 74th Drive,,,0,,,,,
42,42,Shands Hospital @ Center Drive,29.640844,-82.346065,Northbound Center DR @ Farside Mowry RD,,,0,,,,,
627,627,Southbound NE 9th Street @ NE 7th Avenue,29.658631,-82.314848,Southbound NE 9th ST @ Nearside NE 7th AVE,,,0,,,,,
1549,1549,Hilton Garden Inn,29.623194,-82.38657,Westbound SW 33rd PL @ Nearside SW 42nd ST,,,0,,,,,
98,98,SE Hawthorne Rd @ SE 18th St Eastbound,29.64879,-82.301287,Eastbound Hawthorne RD @ Farside SE 18th ST,,,0,,,,,
1306,1306,Publix at Butler Plaza,29.625277,-82.3788,Southbound SW 35th Blvd @ Farside Windmeadows Blvd,,,0,,,,,
1278,1278,Northbound Fort Clarke Boulevard @ Eagle Point,29.66886,-82.436905,Northbound Fort Clarke BLVD @ Nearside NW 17th PL,,,0,,,,,
514,514,Westbound NW 23rd Avenue @ NW 63rd Terrace,29.67424,-82.410596,Westbound NW 23rd AVE @ Farside NW 63rd TER,,,0,,,,,
706,706,Wash King,29.667191,-82.321744,Northbound NE 2nd ST @ Farside NE 16th AVE,,,0,,,,,
814,814,Pinetree Gardens,29.634505,-82.385202,Westbound SW 20th AVE @ Farside SW 40th TER,,,0,,,,,
438,438,The Gate Food Store @ NW 13th Street,29.655937,-82.339305,Southbound NW 13th ST @ Nearside NW 5th AVE,,,0,,,,,
124,124,Lincoln Estates Neighborhood,29.641882,-82.29942,Southbound SE 19th TER @ Nearside SE 10th PL,,,0,,,,,
1620,1620,SW 87th Dr @ Nearside SW 27th Ln,29.628545,-82.4360931,Eastbound SW 87th Dr @ Nearside SW 27th Ln,0,,0,,,,,
182,182,Gainesville Health & Fitness,29.657274,-82.394708,Eastbound Newberry RD @ Nearside NW 48th BLVD,,,0,,,,,
1267,1267,University Commons Apartments,29.631194,-82.363243,Westbound Old Archer RD @ Farside SW 23rd TER,,,0,,,,,
218,218,Bailey Village Assisted Living,29.663864,-82.330763,Northbound NW 6th ST @ Farside NW 13th ST,,,0,,,,,
1470,1470,Gainesville Women's Club,29.652037,-82.364712,Eastbound University Ave @ Farside NW 28th St,,,0,,,,,
307,307,Southeast Gator Liquor @ Hawthorne Road,29.644997,-82.293838,Eastbound Hawthorne RD @ Farside SE 24th ST,,,0,,,,,
1046,1046,Tower Village Apartments,29.612398,-82.4225,Northbound SW 75th ST @ Nearside SW 45th PL,,,0,,,,,
670,670,Dollar General,29.632126,-82.339524,Southbound SW 13th ST @ Nearside SW18th PL,,,0,,,,,
1317,1317,GRACE Marketplace,29.683304,-82.286191,Eastbound NE 39th AVE @ Farside Waldo RD,,,0,,,,,
426,426,Ridgeview Baptist Church,29.685888,-82.347439,Southbound NW 19th ST @ Nearside NW 36th AVE,,,0,,,,,
1119,1119,CROM Equipment Rentals,29.601707,-82.415676,Eastbound Archer RD @ Farside SW 69th TER,,,0,,,,,
980,980,NW 14th Place @ NW 43rd Street,29.665388,-82.388921,Northbound NW 43rd ST @ Nearside NW 14th PL,,,0,,,,,
237,237,Sandy's Boutique,29.691988,-82.339157,Southbound NW 13th ST @ Farside NW 42nd AVE,,,0,,,,,
101,101,SE 24th Street - Dollar General Store,29.646123,-82.293768,Northbound SE 24th ST @ Farside Hawthorne RD,,,0,,,,,
1177,1177,Fifield Hall,29.637721,-82.362319,Westbound Hull RD @ Farside Mowry RD,,,0,,,,,
671,671,Lakeshore Towers Apartments,29.630324,-82.33952,Southbound SW 13th ST @ Nearside SW 25th PL,,,0,,,,,
184,184,Alarion Bank,29.655819,-82.390733,Eastbound Newberry RD @ Nearside NW 43rd ST,,,0,,,,,
1351,1351,Hailey Gardens,29.631395,-82.3892135,Northbound SW 43rd ST @ Nearside SW 22nd LN,,,0,,,,,
2,2,Hampton Inn Hotel,29.650346,-82.323804,Westbound SE 2nd AVE @ Nearside SE 1st ST,,,0,,,,,
7,7,Infinity Hall,29.650314,-82.334603,Westbound SW 2nd AVE @ Nearside SW 10th ST,,,0,,,,,
589,589,Eastside Plaza,29.651755,-82.277637,Eastbound E University AVE @ Nearside SE 39th ST,,,0,,,,,
609,609,Mt Carmel Baptist Church,29.659145,-82.292292,Northbound NE 25th ST @ Nearside NE 8th AVE,,,0,,,,,
87,87,Lincoln Estate Neighborhood,29.640225,-82.302744,Eastbound SE 12th AVE @ Farside SE 17th TER,,,0,,,,,
811,811,Pinnacle Point Apartments,29.634114,-82.377685,Westbound SW 20th AVE @ Farside SW 38th ST,,,0,,,,,
556,556,Northbound NE 9th Street @ E University Avenue,29.652402,-82.314658,Northbound NE 9th ST @ Farside E University AVE,,,0,,,,,
711,711,Chelsea Apartments Eastbound,29.67374,-82.315313,Eastbound NE 23rd AVE @ Nearside NE 9th ST,,,0,,,,,
1173,1173,Cultural Plaza,29.637573,-82.368586,Eastbound Hull RD @ Farside Bledsoe DR,,,0,,,,,
716,716,NE 28th Avenue @ NE 15th Street,29.67695,-82.305731,Northbound NE 15th ST @ Nearside NE 28th AVE,,,0,,,,,
1082,1082,Sparrow Apartments,29.645945,-82.422326,Northbound SW 75th ST @ Farside SW 8th AVE,,,0,,,,,
1015,1015,Southbound NW 43rd Street @ NW 33rd Court,29.684033,-82.389073,Southbound NW 43rd ST @ Nearside NW 33rd CT,,,0,,,,,
1081,1081,Sparrow Apartments,29.645235,-82.420787,Westbound SW 8th AVE @ Farside SW 75th ST,,,0,,,,,
1479,1479,Sorrento New Home Community,29.703359,-82.353141,Westbound NW 53rd AVE @ Nearside NW 55th AVE,,,0,,,,,
419,419,NW 39th Avenue @ NW 34th Street,29.688514,-82.371275,Eastbound NW 39th AVE @ Farside NW 34th ST,,,0,,,,,
1319,1319,Gainesville Regional Airport Outbound,29.678967,-82.276616,Westbound Airport Access RD @ Nearside NE 39th AVE,,,0,,,,,
201,201,West University Avenue & SW 12th St,29.651961,-82.337352,Eastbound W University AVE @ Nearside SW 12th ST,,,0,,,,,
203,203,University of Florida Human Resources,29.651962,-82.333751,Eastbound W University AVE @ Nearside W 8th ST,,,0,,,,,
9,9,Campus USA Credit Union,29.648011,-82.3371672,Southbound SW 12th ST @ Farside SW 4th AVE,0,,0,,,,,
1153,1153,Tolbert Residence Hall,29.6476543,-82.3498442,Southbound Gale Lemerand DR @ Farside Stadium Rd,0,,0,,,,,
1551,1551,Social Security Administration,29.696799,-82.339162,Southbound NW 13th ST @ Nearside NW 45th AVE,,,0,,,,,
1054,1054,Tower Oaks Glenn Apartments,29.634887,-82.414195,Eastbound SW 24th AVE @ Farside SW 19th CT,,,0,,,,,
1389,1389,Eastbound NW 39th AVE @ NW 37th ST,29.688525,-82.377699,Eastbound NW 39th AVE @ Farside NW 37th ST,,,0,,,,,
279,279,Little Warriors Day School,29.663883,-82.331009,Southbound NW 6th ST @ Nearside NW 13th AVE,,,0,,,,,
1372,1372,Newberry Rd @ NW 75th,29.659854,-82.421213,Westbound Newberry RD @ Nearside Tower RD,,,0,,,,,
947,947,Gainesville Place Apartments @ SW 35th Place,29.619683,-82.365079,Eastbound SW 35th PL @ Farside SW 28th TER,,,0,,,,,
110,110,Veteran's Honor Center,29.649248,-82.304229,Westbound SE 3rd AVE @ Farside SE 17th ST,,,0,,,,,
1206,1206,Arlington Square Apartments,29.649517,-82.322302,Northbound SE 3rd ST @ Nearside SE 2nd PL,,,0,,,,,
1216,1216,Arlington Square Apartments,29.649744,-82.32248,Southbound SE 3rd ST @ Nearside SE 2nd PL,,,0,,,,,
533,533,NW 23rd Ave NW 43rd St,29.672947,-82.38673,Eastbound NW 16th BLVD @ Nearside NW 43rd ST,,,0,,,,,
993,993,Huntington Lakes Apartments,29.68883,-82.399846,Westbound NW 39th AVE @ Farside NW 53rd ST,,,0,,,,,
1333,1333,Enclave 1,29.62541,-82.367793,Eastbound SW 32nd Terrace @ E of Main Bldg,,,0,,,,,
759,759,Pine Grove Apartments,29.670098,-82.321381,Southbound NE 2nd ST @ Farside NE 21st LN,,,0,,,,,
1349,1349,Hilton Garden Inn,29.623016,-82.385719,Eastbound SW 33rd PL @ Farside SW 42nd ST,,,0,,,,,
360,360,Norman Field,29.645428,-82.339205,Northbound SW 13th ST @ Farside SW 8th AVE,,,0,,,,,
666,666,Health Science Center Administration,29.63739,-82.343034,Southbound SW 16th ST @ Nearside SW 16th AVE,,,0,,,,,
946,946,Victoria Station Apartments,29.620848,-82.368424,Eastbound SW 35th PL @ Farside SW 32nd TER,,,0,,,,,
1120,1120,Life Storage,29.603082,-82.413069,Eastbound Archer RD @ Nearside SW  66th ST,,,0,,,,,
1610,1610,Jonesville Publix,29.655092,-82.492428,Northbound NW 140 Ter @ Nearside NW 1st Rd,,,0,,,,,
1140,1140,Southbound SW 27th Street @ SW 35th Place,29.619302,-82.36289,Southbound SW 27th ST @ Farside SW 35th PL,,,0,,,,,
97,97,Veteran's Honor Center,29.649098,-82.303346,Eastbound SE 3rd AVE @ Nearside SE 17th ST,,,0,,,,,
349,349,Westbound E University Avenue @ NE 16th Street,29.652024,-82.304293,Westbound E University AVE @ Nearside NE 16th ST,,,0,,,,,
1183,1183,Cultural Plaza,29.6367363,-82.3679535,Eastbound Hull RD @ Farside Bledsoe DR,1,,0,,,,,
784,784,Southbound Williston Road @ SE 1st Terrace,29.6342265,-82.3190123,Southbound Williston RD @ Nearside SE 1st TER,0,,0,,,,,
26,26,Whole Foods @ Butler Town Center,29.625604,-82.374394,Westbound Archer RD @ Farside SW 34th ST,,,0,,,,,
1301,1301,Stoneridge Apartments,29.618519,-82.372697,Southbound SW 34th ST @ Nearside SW 39th BLVD,,,0,,,,,
342,342,Alachua County Sheriffs Department,29.644039,-82.291375,Westbound Hawthorne RD @ Farside SE 25th TER,,,0,,,,,
1058,1058,Linton Oaks,29.644583,-82.409167,Northbound SW 61st ST @ Nearside SW 8th PL,,,0,,,,,
1289,1289,Pepboys Auto @ Newberry RD,29.659597,-82.424971,Eastbound Newberry RD @ Nearside NW 76th BLVD,,,0,,,,,
764,764,Gainesville Shopping Center South,29.661585,-82.324594,Southbound N Main ST @ Nearside NE 10th AVE,,,0,,,,,
228,228,Northbound NW 6th Street @ NW 33rd Avenue,29.6828388,-82.3306709,Northbound NW 6th ST @ Nearside NW 33rd AVE,0,,0,,,,,
507,507,Capital City Bank @ NW 16th Boulevard,29.672891,-82.386122,Westbound NW 16th BLVD @ Nearside NW 41st ST,,,0,,,,,
255,255,Rural King,29.677464,-82.338961,Northbound NW 13th ST @ Farside NW 26th PL,,,0,,,,,
1166,1166,Ironwood Golf Course,29.688133,-82.296986,Westbound NE 39th AVE @ Nearside Waldo RD,,,0,,,,,
804,804,Family Housing,29.641106,-82.369361,Southbound Bledsoe DR @ Farside Radio RD,,,0,,,,,
1393,1393,Northbound NW 55th ST @ NW 14th AVE,29.6652366,-82.401446,Northbound NW 55th ST @ Nearside NW 14th AVE,,,0,,,,,
1187,1187,Microbiology/Cell Science Building,29.6403557,-82.3642279,Southbound Museum RD @ Nearside Radio RD,,,0,,,,,
756,756,Westbound NE 23rd Avenue @ NE 9th Street,29.673932,-82.314619,Westbound NE 23rd AVE @ Nearside NE 9th ST,,,0,,,,,
483,483,University Club Apartments,29.625366,-82.356342,Southbound SW 23rd TER @ Nearside SW 31 PL,,,0,,,,,
396,396,Barnhill Clinic,29.702736,-82.364968,Northbound NW 34th ST @ Nearside NW 29th ST,,,0,,,,,
1036,1036,Westgate Mobile Manor Park,29.607308,-82.405561,Westbound Archer RD @ Farside SW 58th DR,,,0,,,,,
996,996,Emerald Woods Neighborhood,29.6889093,-82.4159358,Westbound NW 39th AVE @ Nearside NW 59th ST,,,0,,,,,
1096,1096,Oaks Square Complex,29.659467,-82.416029,Eastbound Newberry RD @ Farside NW 69th TER,,,0,,,,,
1124,1124,Dogwood Dog Park,29.609276,-82.40128,Eastbound Archer RD @ Nearside SW 52nd TER,,,0,,,,,
525,525,Hickory Woods Neighborhood,29.674185,-82.415353,Eastbound NW 23rd AVE @ Farside NW 68th TER,,,0,,,,,
858,858,Lakeside Housing Complex,29.6412313,-82.3641003,Northbound Museum RD @ Nearside Radio RD,,,0,,,,,
1112,1112,Vet Mem PK,29.615539,-82.422622,Southbound SW 75th ST @ Farside SW 42nd AVE,,,0,,,,,
844,844,Maguire Field,29.640968,-82.369248,Northbound Bledsoe DR @ Nearside Radio RD,,,0,,,,,
409,409,North Walmart Supercenter,29.709163,-82.355985,Southbound NW 23rd ST @ Farside NW 62nd ST,1,,0,,,,,
970,970,Williston Plaza,29.605936,-82.371055,Northbound SW 34th ST @ Farside Williston RD,,,0,,,,,
1043,1043,Asbury Park Apartments,29.603688,-82.422575,Northbound SW 75th ST @ Nearside SW 53rd PL,,,0,,,,,
1159,1159,Phi Kappa Tau,29.650185,-82.338672,Eastbound SW 2nd AVE @ Farside SW 13th ST,,,0,,,,,
672,672,City College Gainesville,29.628248,-82.339531,Southbound SW 13th ST @ Nearside SW 25th PL,,,0,,,,,
450,450,Lexington Crossing Apartments,29.615121,-82.36231,Northbound SW 27th ST @ Nearside SW 38th PL,,,0,,,,,
673,673,Stayable Select Hotel,29.624406,-82.339555,Southbound SW 13th ST @ Nearside SW 14th DR,,,0,,,,,
690,690,Comfort Suites Hotel,29.628293,-82.339192,Northbound SW 13th ST @ Farside SW 23rd PL,,,0,,,,,
140,140,Alachua County Office of the State Attorney,29.652057,-82.326408,Westbound W University AVE @ Nearside NW 2nd ST,,,0,,,,,
1420,1420,Southbound SW 13th ST @ SW 14th AVE,29.637981,-82.339427,Southbound SW 13 ST @ SW 14th AVE,,,0,,,,,
325,325,Verdant Cove Apartments,29.641583,-82.272389,Northbound SE 43rd ST @ Nearside SE 10th PL,,,0,,,,,
347,347,SE 18th St @ E University Avenue,29.652025,-82.301525,Westbound E University AVE @ Nearside SE 18th ST,,,0,,,,,
998,998,Springhill Professional Center,29.687955,-82.430373,Southbound NW 83rd ST @ Farside NW 39th AVE,,,0,,,,,
632,632,Florida School of Traditional Midwifery,29.652046,-82.316547,Westbound E University AVE @ Farside NE 8th ST,,,0,,,,,
1337,1337,Gainesville Place,29.621832,-82.36548,Southbound Gainesville Place Apartments @ Nearsid*,,,0,,,,,
306,306,Eastbound University Avenue @ SE 24th Street,29.651775,-82.293739,Eastbound E University AVE @ Nearside SE 24th ST,,,0,,,,,
14,14,Frazier Rogers Hall,29.64494,-82.344997,Westbound Museum Rd @ Farside Newell Dr,,,0,,,,,
125,125,SE 12th Avenue @ SE 17th Drive,29.640324,-82.302536,Westbound SE 12th AVE @ Nearside SE 18th TER,,,0,,,,,
1098,1098,North Florida Regional Medical Center,29.65975,-82.41201,Westbound Newberry RD @ Nearside NW 66th ST,,,0,,,,,
152,152,Hillel at the University of Florida,29.652178,-82.350208,Westbound W University AVE @ Farside NW 20th DR,,,0,,,,,
247,247,Gainesville High School,29.670502,-82.339251,Southbound NW 13th ST @ Nearside NW 19th LN,,,0,,,,,
1,1,Rosa Parks RTS Downtown Station,29.645567,-82.322697,Northbound SE 3rd ST @ Nearside SE 3rd ST,1,,0,,,,,
1550,1550,Hotel Eleo @ SW 16th Ave Westbound,29.636454,-82.341105,Westbound SW 16th AVE @ Farside SW 14th ST,,,0,,,,,
1303,1303,O2B Kids @ SW 37th BLVD,29.617791,-82.377778,Northbound SW 39th BLVD @ Nearside Archer RD,,,0,,,,,
1104,1104,The Gardens Apartments,29.651869,-82.422534,Southbound SW 75th ST @ Nearside SW 1st PL,,,0,,,,,
838,838,34th St Plaza,29.634039,-82.375158,Eastbound SW 20th AVE @ Nearside SW 34th ST,,,0,,,,,
373,373,Furniture Kingdom,29.674086,-82.340774,Westbound NW 23rd AVE @ Farside NW 13th ST,,,0,,,,,
389,389,Westbound NW 39th Avenue @ NW 31st Street,29.68873,-82.368603,Westbound NW 39th AVE @ Nearside NW 31st TER,,,0,,,,,
833,833,Addison Lane,29.634296,-82.38484,Eastbound SW 20th AVE @ Nearside SW 40th TER,,,0,,,,,
144,144,Leonardo's 706,29.65215,-82.332359,Westbound W University AVE @ Nearside NW 8th ST,,,0,,,,,
395,395,YMCA @ NW 34th Street,29.701907,-82.366863,Northbound NW 34th ST @ Farside NW 30th TER,,,0,,,,,
236,236,Early Learning Coalition,29.694993,-82.339162,Southbound NW 13th ST @ Farside NW 44th AVE,,,0,,,,,
1016,1016,Millhopper Branch Library,29.681599,-82.389063,Southbound NW 43rd ST @ Nearside NW 31st AVE,,,0,,,,,
1049,1049,Tower Road Branch Library,29.626103,-82.422459,Northbound SW 75th ST @ Farside SW 24th AVE,,,0,,,,,
256,256,Mount Pleasant Cemetary,29.679712,-82.33895,Northbound NW 13th ST @ Farside NW 29th RD,,,0,,,,,
1613,1613,Town of Tioga (Eastbound),29.656385,-82.48215,Eastbound NW Newberry Rd @ Nearside SW 131st St,,,0,,,,,
1055,1055,Split Rock Conservation Area,29.639213,-82.410517,Eastbound SW 24th AVE @ Farside SW 61st ST,,,0,,,,,
618,618,Duval Elementary School,29.659297,-82.29714,Westbound NE 8th AVE @ Nearside NE 21st ST,,,0,,,,,
1585,1585,NW 6th St @ NW 3rd Ave,29.653714,-82.330751,Northbound NW 6th St @ NW 3rd Ave,,,0,,,,,
899,899,NE 16th Avenue @ NE 15th Street,29.666584,-82.305688,Westbound NE 16th AVE @ Nearside NE 15th ST,,,0,,,,,
802,802,Lakeside Apartments,29.642318,-82.366452,Westbound Radio RD @ Farside Museum RD,,,0,,,,,
388,388,Springtree Subdivision,29.688724,-82.36651,Westbound NW 39th AVE @ Farside NW 29th TER,,,0,,,,,
1194,1194,Commuter Lot/Garage 14,29.6422375,-82.350616,Northbound Gale Lemerand DR @ Farside Museum RD,0,,0,,,,,
53,53,Innovation Square East,29.650153,-82.332741,Eastbound SW 2nd AVE @ Farside SW 7th TER,,,0,,,,,
718,718,Northbound NE 15th Street @ NE 31st Avenue,29.681769,-82.305727,Northbound NE 15th ST @ Farside NE 31st AVE,,,0,,,,,
668,668,Ronald McDonald House of Gainesville,29.636273,-82.340471,Eastbound SW 16th AVE @ Nearside SW 14th ST,,,0,,,,,
787,787,Treehouse Village Apartments,29.6327748,-82.3259281,Westbound SE 16th AVE @ Nearside S Main ST,0,,0,,,,,
1270,1270,Gainesville Place Apartments,29.627188,-82.370782,Southbound Gainesville Place Ent @ Old Archer RD,,,0,,,,,
1325,1325,Division of Blind Services,29.686504,-82.389063,Southbound NW 43rd ST @ Nearside NW 36th AVE,,,0,,,,,
1492,1492,Butler Plaza,29.623861,-82.381311,Westbound Windmeadows Blvd @ Nearside SW 62nd Blvd,,,0,,,,,
693,693,home2 Hotel,29.631991,-82.339169,Northbound SW 13th ST @ Nearside SW 21st AVE,,,0,,,,,
262,262,Westgate Mobile Manor Park,29.695,-82.338885,Northbound NW 13th ST @ Nearside NW 45th AVE,,,0,,,,,
1609,1609,Jonesville Arbor Greens,29.654706,-82.487319,Westbound NW Newberry Road @ Nearside NW 136th St,,,0,,,,,
1100,1100,West Newberry Rd Nearside NW 69th Ter,29.659768,-82.415987,Westbound Newberry RD @ Nearside NW 69th TER,,,0,,,,,
52,52,Eastbound SW 2nd Avenue @ SW 10th Street,29.650154,-82.33541,Eastbound SW 2nd AVE @ Nearside SW 10th ST,,,0,,,,,
261,261,Sunshine Inn,29.691449,-82.338884,Northbound NW 13th ST @ Nearside NW 42nd AVE,,,0,,,,,
1554,1554,Marshall's @ Plaza Blvd (Westbound),29.6279932,-82.3830788,Westbound Plaza Blvd @ Nearside SW 62nd Blvd,0,,0,,,,,
1136,1136,Wilmot Gardens,29.639607,-82.349435,Westbound Mowry RD @ Nearside Gale Lemerand DR,,,0,,,,,
338,338,Durelle Heights Neighborhood,29.634861,-82.289182,Northbound SE 27th ST @ Nearside SE 18th AVE,,,0,,,,,
174,174,Terwilliger Elementary School,29.655878,-82.408766,Northbound NW 62nd ST @ Nearside NW 4th PL,,,0,,,,,
154,154,Westbound University Avenue @ NW 23rd Drive,29.652275,-82.358781,Westbound W University AVE @ Nearside NW 23rd DR,,,0,,,,,
145,145,Westbound W University Ave @ NW 10th St,29.652148,-82.334897,Westbound W University AVE @ Nearside NW 10th ST,,,0,,,,,
1038,1038,A Child's Place,29.605527,-82.408965,Westbound Archer RD @ Nearside SW 63rd BLVD,,,0,,,,,
1025,1025,Landmark Woods Neighborhood,29.661398,-82.389176,Southbound NW 43rd ST @ Nearside NW 9th PL,,,0,,,,,
394,394,Family Dollar @ NW 34th Street,29.700757,-82.36939,Northbound NW 34th ST @ Farside NW 51st PL,,,0,,,,,
63,63,Norwood Neighborhood,29.63612,-82.317214,Southbound SE 4th St @ Nearside SE 14th Ln,,,0,,,,,
541,541,Raintree Neighborhood,29.66665,-82.357935,Eastbound NW 16th AVE @ Nearside NW 23rd TER,,,0,,,,,
1051,1051,Walgreens @ SW 24th Avenue,29.630459,-82.421341,Eastbound SW 24th AVE @ Farside SW 75th ST,,,0,,,,,
766,766,Fire Stone @ N Main Street,29.65817,-82.325113,Southbound N Main ST @ Nearside NE 7th AV,,,0,,,,,
440,440,North 13th Street @ NW 1st Avenue,29.652932,-82.339365,Southbound NW 13th ST @ Nearside NW 1st AVE,,,0,,,,,
824,824,Hampton Oaks Apartments,29.651658,-82.408971,Southbound SW 62nd BLVD @ Farside NW 1st PL,,,0,,,,,
277,277,NW 6th Street @ NW 19th Lane,29.670009,-82.330932,Southbound NW 6th ST @ Farside NW 19th LN,,,0,,,,,
1559,1559,Butler Plaza North,29.627096,-82.385165,Southbound Clark Butler BLVD @ Nearside Plaza BLVD,,,0,,,,,
852,852,Triangle Club,29.648183,-82.31268,Eastbound SE 4th AVE @ Nearside 11th ST,,,0,,,,,
428,428,Southbound NW 21st Street @ NW 36th Avenue,29.68524,-82.351557,Southbound NW 21st ST @ Farside NW 36th AVE,,,0,,,,,
1213,1213,Lexington Crossing Apartments,29.613535,-82.362271,Southbound SW 27th ST @ Nearside SW 40th PL,,,0,,,,,
1137,1137,Cypress Villas,29.620249,-82.356695,Westbound SW 35th PL @ Farside SW 23rd TER,,,0,,,,,
454,454,Northbound SW 27th Street @ SW 35th Place,29.619626,-82.362759,Northbound SW 27th ST @ Nearside SW 35th PL,,,0,,,,,
1264,1264,Cottage Grove Apartments at Gainesville,29.609502,-82.341857,Southbound SW 13th ST @ Farside SW Williston RD,,,0,,,,,
859,859,Cabana Beach Apartments (Exit),29.638078,-82.397988,Westbound SW 52nd BLVD @ Nearside SW 20th AVE,,,0,,,,,
441,441,Tigert Hall,29.64963,-82.339521,Southbound SW 13th ST @ Farside SW 2nd AVE,,,0,,,,,
847,847,Corry Village,29.644774,-82.360875,Northbound Museum RD @ Nearside Village DR,,,0,,,,,
393,393,Capri Neighborhood,29.695491,-82.372212,Northbound NW 34th ST @ Nearside NW 45th AVE,,,0,,,,,
842,842,Southwest Recreation Center,29.638171,-82.369247,Northbound Bledsoe DR @ Farside Hull RD,,,0,,,,,
1115,1115,Stillwind Neighborhood,29.60622,-82.42273,Southbound SW 75th ST @ Farside SW 51st BLVD,,,0,,,,,
848,848,Lake Alice Field,29.644875,-82.356718,Eastbound Museum RD @ Farside Fraternity DR,,,0,,,,,
798,798,Sigma Alpha Epsilon,29.644974,-82.355295,Westbound Museum RD @ Nearside Woodlawn DR,,,0,,,,,
1329,1329,Alachua County Jail,29.680156,-82.280206,Eastbound NE 39th AVE @ Farside Waldo RD,,,0,,,,,
179,179,Eastbound W Newberry Rd @ NW 53rd Terrace,29.659006,-82.39996,Eastbound Newberry RD @ Nearside NW 53rd TER,,,0,,,,,
330,330,Westbound Hawthorne Road @ SE 39th Street,29.636919,-82.275702,Westbound Hawthorne RD @ Nearside SE 39th TER,,,0,,,,,
1087,1087,Pine Meadow Apartments,29.653263,-82.418623,Eastbound W University AVE @ Farside SW 75th ST,,,0,,,,,
1387,1387,Sable Chase Neighborhood,29.688773,-82.374551,Westbound NW 39th AVE @ Nearside NW 35th ST,,,0,,,,,
82,82,McPherson Recreational Center,29.633752,-82.305794,Northbound SE 15th ST @ Farside SE 22nd AVE,,,0,,,,,
27,27,Chili's Grill and Bar @ Butler Plaza,29.623782,-82.376087,Westbound Archer RD @ Nearside SW 35th BLVD,,,0,,,,,
1482,1482,Lake Alice Conservation Area,29.638474,-82.353602,Westbound Mowry Rd @ Nearside SW 23 Dr,,,0,,,,,
99,99,SE Hawthorne Rd @ SE 21st St Eastbound,29.647,-82.297773,Eastbound Hawthorne RD @ Nearside SE 21st ST,,,0,,,,,
460,460,Towne Parc Apartments,29.623937,-82.356027,Northbound SW 23rd TER @ Farside SW 31st PL,,,0,,,,,
1444,1444,Alight Apts,29.657978,-82.337149,Soundbound NW 12th ST @ Nearside NW 7th AVE,,,0,,,,,
785,785,Springhill Baptist Church,29.6332729,-82.3201121,Southbound Williston RD @ Nearside SE 1st ST,0,,0,,,,,
40,40,Shands Care Helicopter Pad,29.636402,-82.350912,Eastbound Archer RD @ Nearside Gale Lemerand DR,,,0,,,,,
526,526,Eastbound NW 23rd Avenue @ NW 63rd Terrace,29.674122,-82.410453,Eastbound NW 23rd AVE @ Nearside NW 63rd TER,,,0,,,,,
1013,1013,Pine Woods Apartments,29.688548,-82.391263,Eastbound NW 39th AVE @ Nearside NW 45th ST,,,0,,,,,
96,96,Northbound SE 15th Street @ SE 3rd Avenue,29.64879,-82.305788,Northbound SE 15th ST @ Nearside SE 3rd Ave,,,0,,,,,
498,498,NW 24th St @ NW 16th Avenue,29.666836,-82.358027,Westbound NW 16th AVE @ Nearside NW 24th ST,,,0,,,,,
462,462,University of Florida Energy Research,29.628062,-82.35935,Northbound SW 23rd TER @ Nearside SW Archer RD,,,0,,,,,
1386,1386,Breckenridge Neighborhood,29.688792,-82.378614,Westbound NW 39th AVE @ Farside NW 37th TER,,,0,,,,,
967,967,Hunters Run Apartments,29.61204,-82.359379,Westbound Williston RD @ Farside SW 25th TER,,,0,,,,,
398,398,Sorrento New Home Community,29.703231,-82.353051,Eastbound NW 53rd AVE @ Farside NW 21st DR,,,0,,,,,
983,983,Millhopper Pines Apartments,29.670619,-82.38885,Northbound NW 43rd ST @ Farside NW 18th PL,,,0,,,,,
578,578,Southbound NE 25th Street @ NE 8th Avenue,29.658841,-82.292389,Southbound NE 25th ST @ Nearside NE 8th AVE,,,0,,,,,
839,839,Florida Department Of Agriculture,29.635446,-82.372376,Northbound SW 34th ST @ Farside SW 20th AVE,,,0,,,,,
1234,1234,NE Walmart Supercenter,29.662615,-82.302423,Eastbound NE 12th AVE @ Farside Waldo RD,,,0,,,,,
1063,1063,Linton Oaks @ SW 24th Ave,29.640082,-82.408267,Southbound SW 61st ST @ Farside SW 20th AVE,,,0,,,,,
800,800,Corry Village,29.644942,-82.360713,Southbound Museum RD @ Farside Village DR,,,0,,,,,
1002,1002,Santa Fe College @ NW 83rd Street (Northbound),29.68061,-82.43027,Northbound NW 83rd ST @ Nearside NW 31st AVE,,,0,,,,,
963,963,Keys Residential Complex Midblock,29.6482094,-82.3530097,Eastbound Midblock Stadium Rd,,,0,,,,,
634,634,Alachua County School Board Administration,29.652024,-82.31964,Westbound E University AVE @ Nearside NE BLVD,,,0,,,,,
596,596,Lake Forest Elementary School,29.648533,-82.272339,Northbound SE 43rd ST @ Nearside SE 4th AVE,,,0,,,,,
135,135,Dignity Project,29.639714,-82.318874,Northbound SE 4th St @ Nearside SE 11th Pl,,,0,,,,,
732,732,Oak Gate Condominiums,29.679041,-82.33084,Southbound NW 6th ST @ Nearside NW 29th AVE,,,0,,,,,
466,466,Forestry Field Lab/Plant Growth,29.638176,-82.356696,Eastbound Mowry RD @ Farside Hull RD,,,0,,,,,
345,345,Harper's Pointe,29.652024,-82.295187,Westbound E University AVE @Nearside 22nd ST,,,0,,,,,
24,24,Take 5 Car Wash,29.629572,-82.367828,Westbound Archer RD @ Farside Surge Area DR,,,0,,,,,
714,714,Boulware Charter School,29.673735,-82.308331,Eastbound NE 23rd AVE @ Nearside NE 14th ST,,,0,,,,,
304,304,Eastbound University Avenue @ SE 21st Street,29.651799,-82.297724,Eastbound E University AVE @ Nearside SE 21st ST,,,0,,,,,
254,254,Big Lot on NW 13th Street,29.675139,-82.33899,Northbound NW 13th ST @ Farside NW 23rd AVE,,,0,,,,,
744,744,Wade Raulerson Honda Dealership,29.688307,-82.318521,Eastbound NE 39th AVE @ Farside N Main ST,,,0,,,,,
741,741,Gainesville Public Works,29.688362,-82.32783,Eastbound NW 39th AVE @ Farside NW 6th ST,,,0,,,,,
417,417,Capri Neighborhood,29.694582,-82.37237,Southbound NW 34th ST @ Farside NW 44th PL,,,0,,,,,
1059,1059,Linton Oaks Neighborhood @ SW 64th Terrace,29.6450648,-82.4116768,Southbound SW 64th TER @ Farside SW 8th AVE,,,0,,,,,
1625,1625,SW 6th St & SW 3rd Ave (southbound),29.6492304,-82.3309826,Southbound SW 6th St @ nearside SW 3rd Ave,0,,0,,,,,
807,807,University Village South Apartments,29.637748,-82.370373,Westbound Hull RD @ Nearside SW 34th ST,,,0,,,,,
425,425,Eastbound NW 39th Ave at NW 19th St Green Tree Pk,29.688417,-82.347868,Eastbound NW 39th AVE @ Nearside NW 19th ST,,,0,,,,,
1496,1496,Family Dollar Shopping Center,29.645966,-82.295144,Westbound SE Hawthorne Rd @ Farside SE 24th St,,,0,,,,,
1259,1259,Sunco @ E University Avenue,29.651961,-82.272934,Westbound E University AVE @ Farside SE 43rd ST,,,0,,,,,
334,334,Southbound SE 35th Street @ SE 20th Avenue,29.63276,-82.28088,Southbound SE 35th ST @ Nearside SE 20th AVE,,,0,,,,,
1552,1552,Circle K @ Newberry/Tower Road,29.659585,-82.422572,Eastbound Newberry RD @ Nearside NW 75th ST,,,0,,,,,
350,350,Fast Eddie's Restaurant,29.650506,-82.305928,Southbound SE 15th ST @ Farside SE 2nd AVE,,,0,,,,,
1005,1005,Springhill Professional Center,29.687951,-82.430174,Northbound NW 83rd ST @ Nearside NW 39th AVE,,,0,,,,,
15,15,Center Dr @ Museum Rd,29.644019,-82.347014,Southbound Center DR @ Farside Museum RD,,,0,,,,,
1318,1318,GRACE Marketplace,29.683571,-82.286172,Westbound NE 39th AVE @ Nearside Waldo RD,,,0,,,,,
920,920,GRU Administration Building,29.648414,-82.321461,Westbound SE 4th AVE @ Nearside SE 4th ST,,,0,,,,,
1395,1395,Southbound NW 55th ST @ NW 9th LN,29.6602377,-82.4015993,Southbound NW 55th ST @ Farside NW 9th LN,,,0,,,,,
846,846,Lakeside Residential Complex,29.642181,-82.364643,Eastbound Radio RD @ Nearside Museum RD,,,0,,,,,
598,598,Eastside Plaza,29.651971,-82.276984,Westbound E University AVE @ Farside SE 39th ST,,,0,,,,,
1109,1109,Tower 24 Shopping Center,29.628917,-82.422593,Southbound SW 75th ST @ Nearside SW 26th AVE,,,0,,,,,
791,791,Oakbrook Walk Condominiums @ SW 16th Avenue,29.6365343,-82.3382784,Westbound SW 16th Ave @ Nearside SW 13th St,0,,0,,,,,
971,971,US Post Office @ SW 34th Street,29.608991,-82.371314,Northbound SW 34th ST @ Nearside SW 47th AVE,,,0,,,,,
1269,1269,Archer Court Apartments,29.62941,-82.3671,Westbound Old Archer RD @ Nearside SW 28th Pl,,,0,,,,,
1321,1321,The Enclave Apartments,29.621161,-82.368827,Westbound SW 35th PL @ Nearside SW 34th ST,,,0,,,,,
828,828,Rockwood Villas Apartments,29.644196,-82.398964,Southbound SW 62nd BLVD @ Nearside SW 9th PL,,,0,,,,,
855,855,Walgreens @ NE 3rd Avenue,29.653405,-82.31039,Northbound Waldo RD @ Nearside NE 3rd AVE,,,0,,,,,
1010,1010,Huntington Lakes Apartments,29.688594,-82.400465,Eastbound NW 39th AVE @ Nearside NW 53rd ST,,,0,,,,,
835,835,Kensington Apartments South,29.633958,-82.381892,Eastbound SW 20th AVE @ Nearside SW 38th TER,,,0,,,,,
969,969,UF Health Professional Park,29.606183,-82.367751,Westbound Williston RD @ Farside SW 29Th Dr,,,0,,,,,
472,472,Rawlings Hall,29.646296,-82.34336,Northbound Newell Drive @ Nearside McCarty Drive,,,0,,,,,
801,801,UF Bat Houses,29.643222,-82.363619,Southbound Museum RD @ Nearside Radio RD,,,0,,,,,
242,242,McDonald's @ NW 13th Street,29.679423,-82.339222,Southbound NW 13th ST @ Nearside NW 29th AVE,,,0,,,,,
1484,1484,Varsity House Apartments @ SW 38th Ter,29.636472,-82.380767,Northbound SW 38th TER @ Nearside Hull RD,,,0,,,,,
1023,1023,Suburban Heights Neighborhood,29.66488,-82.389144,Southbound NW 43rd ST @ Nearside NW 13th AVE,,,0,,,,,
994,994,Faith Presbyterian Church,29.688905,-82.405853,Westbound NW 39th AVE @ Farside NW 53rd ST,,,0,,,,,
329,329,Chevron Food Mart @ SE 43rd Street,29.636223,-82.272559,Southbound SE 43rd ST @ Nearside Hawthorne RD,,,0,,,,,
136,136,SE 4th Street @ SE 10th Ave,29.641648,-82.319843,Northbound SE 4th St @ Nearside SE 10th Avenue,,,0,,,,,
945,945,Ridgemar Commons,29.621566,-82.370416,Eastbound SW 35th PL @ Farside SW 32nd TER,,,0,,,,,
1024,1024,Landmark Woods Neighborhood,29.663224,-82.389178,Southbound NW 43rd ST @ Farside NW 12th AVE,,,0,,,,,
555,555,Eastbound E University Avenue @ SE 8th Street,29.651849,-82.316318,Eastbound E University AVE @ Nearside SE 8th ST,,,0,,,,,
128,128,Southbound SE 15th Street @ SE 14th Avenue,29.638459,-82.305946,Southbound SE 15th ST @ Nearside SE 14th AVE,,,0,,,,,
45,45,University Police Department,29.644758,-82.343068,Eastbound Museum RD @ Farside Newell DR,,,0,,,,,
968,968,Hideaway Apartments,29.6089,-82.364014,Westbound Williston RD @ Nearside SW 29Th Dr,,,0,,,,,
386,386,Forest of the Unicorn Neighborhood,29.688636,-82.358168,Westbound NW 39th AVE @ Nearside NW 24th BLVD,,,0,,,,,
1068,1068,CVS Pharmacy @ SW 75th Street,29.6311309,-82.422398,Northbound SW 75th ST @ Farside SW 24th AVE,0,,0,,,,,
131,131,Westbound SE 22nd Avenue @ SE 13th Street,29.631864,-82.30858,Westbound SE 22nd AVE @ Nearside SE 13th ST,,,0,,,,,
740,740,Stephen Foster Elementary School @ 39th Ave,29.688428,-82.331785,Eastbound NW 39th AVE @ Nearside NW 7th ST,,,0,,,,,
1363,1363,Shands Parking Garage,29.63951,-82.34701,Eastbound Mowry Rd Near Center Drive,,,0,,,,,
910,910,UF Health Family Medicine Eastside,29.655029,-82.309495,Southbound Waldo RD @ Farside NE 5th AVE,,,0,,,,,
1616,1616,SW 24th Avenue & School House Road,29.630689,-82.445365,Westbound SW 24th Avenue @ Nearside School House Road,,,0,,,,,
295,295,Williams Elementary School,29.645722,-82.308078,Eastbound SE 7th AVE @ Farside SE 12th TER,,,0,,,,,
569,569,Duval Elementary School,29.65918,-82.298217,Eastbound NE 8th AVE @ Farside NE 20th ST,,,0,,,,,
456,456,Arbor Park Apartments,29.619966,-82.358818,Eastbound SW 35th PL @ Nearside SW 27th TER,,,0,,,,,
390,390,NW 39th Avenue @ NW 34th Street,29.68876,-82.371579,Westbound NW 39th AVE @ Nearside NW 34th ST,,,0,,,,,
285,285,Santa Fe Blount Center,29.6526615,-82.3300376,Eastbound NW 1st AVE @ Farside NW 6th ST,0,,0,,,,,
1502,1502,Northbound Metcalfe Elementary School,29.668285,-82.305747,Northbound NE 15th ST @ Nearside NE 18th AVE,,,0,,,,,
1398,1398,Westbound SW 24th AVE @ SW 75th ST,29.630617,-82.423787,Westbound SW 24th AVE @ Farside SW 75th ST,,,0,,,,,
845,845,Lakeside,29.642199,-82.366099,Eastbound Radio RD @ Nearside Museum RD,,,0,,,,,
822,822,Palm Garden of Gainesville,29.64998,-82.407117,Northbound SW 62nd BLVD @ Nearside SW 4th PL,,,0,,,,,
90,90,Lincoln Estate Neighborhood,29.641749,-82.299326,Northbound SE 19th TER @ Nearside SE 10th PL,,,0,,,,,
1276,1276,Paddock Club Apartments,29.663497,-82.433508,Northbound Fort Clarke BLVD @ Farside NW 8th AVE,,,0,,,,,
737,737,Wawa @ NW 13th St,29.674053,-82.338429,Westbound NW 23rd AVE @ Farside NW 12th ST,,,0,,,,,
686,686,CDS Family and Behavioral Services,29.620378,-82.339799,Northbound SW 13th ST @ Nearside SW 36th PL,,,0,,,,,
190,190,The Wynwood Apartments,29.650453,-82.37451,Eastbound SW 2nd AVE @ Nearside SW 34th ST,,,0,,,,,
60,60,SE 4th Street @ SE 10th Avenue,29.641666,-82.319959,Eastbound SE 4th St @ Nearside SE 10th Ave,,,0,,,,,
586,586,Pine Meadows Apartments,29.65175,-82.289431,Eastbound E University AVE @ Farside SE 26th TER,,,0,,,,,
965,965,Gator Corner Dining,29.6485314,-82.3501142,Eastbound Stadium Rd @ Nearside Gale Lemerand Dr,,,0,,,,,
749,749,Village Green Apartments,29.683511,-82.305875,Southbound NE 15th ST @ Farside NE 31st AVE,,,0,,,,,
635,635,BLVD Gainesville,29.617592,-82.377741,Southbound SW 37th BLVD @ Farside SW 38th ST,,,0,,,,,
358,358,The Cotton Club,29.64585,-82.315044,Westbound SE 7th AVE @ Nearside SE 9th ST,,,0,,,,,
331,331,Eastside Food Store,29.638623,-82.280846,Southbound SE 35th ST @ Farside Hawthorne RD,,,0,,,,,
500,500,NW 27th Terrace @ NW 16th Avenue,29.666871,-82.362903,Westbound NW 16th AVE @ Nearside NW 27th TER,,,0,,,,,
1240,1240,Northbound NE 25th Street @ NE 3rd Place,29.654117,-82.292269,Northbound NE 25th ST @ Nearside NE 3rd PL,,,0,,,,,
597,597,Sunrise Store @ SE 43rd Street,29.65097,-82.272361,Northbound SE 43rd ST @ Nearside E University AVE,,,0,,,,,
696,696,University Police Department,29.644323,-82.343607,Southbound Newell DR @ Farside Museum RD,,,0,,,,,
689,689,Boardwalk Apartments,29.626535,-82.3392,Northbound SW 13th ST @ Farside SW 14th DR,,,0,,,,,
1184,1184,Weed Science Building,29.6387966,-82.3641028,Northbound Museum RD @ Farside Hull RD,,,0,,,,,
314,314,Faith Missionary Church,29.632585,-82.285681,Eastbound SE 21st AVE @ Nearside SE 30th Dr,,,0,,,,,
761,761,Sandwich Inn @ NE 16th Ave,29.666684,-82.323115,Westbound NE 16th AVE @ Nearside NE 2nd ST,,,0,,,,,
149,149,West Univ Avenue @ NW 17th Street,29.652158,-82.344574,Westbound W University AVE @ Nearside NW 17th ST,,,0,,,,,
832,832,Liv Apartments,29.635439,-82.388088,Eastbound SW 20th AVE @ Farside SW 42nd DR,,,0,,,,,
1632,1632,Inner Road Eastbound,29.6472686,-82.3410273,Eastbound Inner Road Near Broward Dining,0,,0,,,,,
451,451,Lexington Crossing Apartments,29.616214,-82.362444,Northbound SW 27th ST @ Farside SW 38th PL,,,0,,,,,
1039,1039,Kanapaha Station Plaza,29.603437,-82.412954,Westbound Archer RD @ Nearside SW 66th ST,,,0,,,,,
319,319,Northbound SE 35th Street @ SE 16th Avenue,29.636671,-82.28069,Northbound SE 35th ST @ Farside SE 16th AVE,,,0,,,,,
172,172,Oaks Mall SW 62nd Blvd,29.654389,-82.408973,Southbound NW 62nd ST @ Farside NW 1st PL,,,0,,,,,
372,372,Lux 13 Apartments,29.67111,-82.339044,Northbound NW 13th ST @ Farside NW 21st AVE,,,0,,,,,
735,735,Rena's Ballroom,29.674014,-82.332201,Westbound NW 23rd AVE @ Farside NW 6th ST,,,0,,,,,
488,488,Countryside at the University Apartments,29.615981,-82.355414,Southbound SW 23rd TER @ Nearside Williston RD,,,0,,,,,
642,642,University Terrace Condominiums,29.617006,-82.372153,Northbound SW 34th ST @ Nearside SW 39th BLVD,,,0,,,,,
1300,1300,Gainesville Jrs. Volleyball Club,29.620509,-82.37289,Southbound SW 34th ST @ Farside SW 35th PL,,,0,,,,,
421,421,Walnut Creek Neighborhood,29.688441,-82.360217,Eastbound NW 39th AVE @ Nearside NW 25th TER,,,0,,,,,
524,524,Quail Ridge Neighborhood,29.67419,-82.418261,Eastbound NW 23rd AVE @ Nearside NW 71st ST,,,0,,,,,
164,164,Millennium Center,29.655612,-82.389408,Westbound Newberry RD @ Nearside NW 43rd ST,,,0,,,,,
1618,1618,Queen of Peace Church,29.630694,-82.456769,Westbound SW 24th Ave @ Farside SW 105th St,,,0,,,,,
1122,1122,Westgate Manor Park,29.607018,-82.405613,Eastbound Archer RD @ Farside SW 51st LN,,,0,,,,,
1017,1017,Radiant Credit Union,29.676449,-82.389093,Southbound NW 43rd ST @ Nearside NW 27th AVE,,,0,,,,,
1040,1040,Town & Country Veterinarians,29.602107,-82.415476,Westbound Archer RD @ Nearside SW 69th TER,,,0,,,,,
954,954,Enclave Apartments,29.625581,-82.366357,Westbound SW 28th PL @ Farside SW 28th PL,,,0,,,,,
200,200,Anderson Hall,29.652,-82.34201,Eastbound W University AVE @ Nearside NW 15th ST,,,0,,,,,
43,43,Center Dr @ Museum Rd,29.644403,-82.346846,Northbound Center DR @ Nearside Museum RD,,,0,,,,,
313,313,Lana's Place,29.632589,-82.288082,Eastbound SE 21st AVE @ Nearside SE 28 DR,,,0,,,,,
869,869,Fair View Apartments,29.666434,-82.304088,Eastbound NE 16th AVE @ Nearside NE 16th TER,,,0,,,,,
1168,1168,Northwood Oaks Neighborhood,29.704007,-82.362109,Northbound NW 34th ST @ Farside NW 54th AVE,,,0,,,,,
1491,1491,Lowe's @ Butler Plaza Eastbound,29.623953,-82.380799,Eastbound Windmeadows Blvd @ Farside SW 62nd Blvd,,,0,,,,,
1135,1135,Shands Visitor Parking,29.639637,-82.347288,Westbound Mowry RD @ Farside Center DR,,,0,,,,,
221,221,Family Acupuncture Center,29.669248,-82.330771,Northbound NW 6th ST @ Nearside NW 19th AVE,,,0,,,,,
707,707,Pine Grove Apartments,29.670214,-82.321102,Northbound NE 2nd ST @ Nearside NE 21st LN,,,0,,,,,
1497,1497,Alachua School Bus Parking Lot,29.648572,-82.300287,Westbound SE Hawthorne Rd @ Farside SE 20th St,,,0,,,,,
1121,1121,SunState,29.605087,-82.409246,Eastbound Archer RD @ Nearside SW 63rd BLVD,,,0,,,,,
1091,1091,Home Depot @ NW 4th Boulevard,29.656182,-82.418499,Westbound NW 4th BLVD @ Nearside NW 75th ST,,,0,,,,,
315,315,Eastbound SE 21st Avenue @ SE 32nd Terrace,29.63259,-82.2837,Eastbound SE 21st AVE @ Nearside SE 32 TER,,,0,,,,,
1324,1324,Sorority Row,29.644821,-82.335705,Northbound SW 11th ST @ Nearside SW 8th AVE,,,0,,,,,
730,730,Southbound NW 6th Street @ NW 32nd Place,29.68268,-82.330833,Southbound NW 6th ST @ Nearside NW 32nd PL,,,0,,,,,
1237,1237,Museum Walk Apartments,29.637599,-82.374952,Eastbound Hull RD @ Nearside SW 34th ST,,,0,,,,,
1000,1000,The Arc,29.683831,-82.43038,Southbound NW 83rd ST @ Farside North RD,,,0,,,,,
147,147,Target Copy @ W University Avenue,29.652196,-82.340837,Westbound W University AVE @ Nearside SW 14th ST,,,0,,,,,
1041,1041,Bank of America @ Tower Square on Archer Road,29.600454,-82.418626,Westbound Archer RD @ Farside SW 75th ST,,,0,,,,,
423,423,Palmetto Woods Neighborhood,29.688383,-82.353988,Eastbound NW 39th AVE @ Farside NW 22nd DR,,,0,,,,,
57,57,Hippodrome Theatre,29.650203,-82.324144,Eastbound SE 2nd AVE @ Nearside SE 1st ST,,,0,,,,,
803,803,UF Counseling and Wellness Center,29.642306,-82.368954,Westbound Radio RD @ Nearside Bledsoe DR,,,0,,,,,
309,309,Alachua County Sheriff's Office,29.64283,-82.289449,Eastbound Hawthorne RD @ Nearside SE 27th ST,,,0,,,,,
1181,1181,UF Orthopaedics Institute,29.637827,-82.374012,Westbound Hull RD @ Farside SW 34th ST,,,0,,,,,
1279,1279,Hidden Oak Elementary School,29.670888,-82.439,Northbound Fort Clarke BLVD @ Farside NW 89th DR,,,0,,,,,
927,927,Ben Hill Griffin Stadium North End Zone,29.6510481,-82.3497907,Southbound Gale Lemerand DR @ Farside W University,0,,0,,,,,
61,61,Dignity Project,29.639719,-82.318989,Southbound SE 4th St @ Farside SE 10th Ave,,,0,,,,,
1405,1405,Eastbound SW 24th AVE @ SW 84th ST,29.630494,-82.432433,Eastbound SW 24th AVE @ Nearside SW 84th ST,,,0,,,,,
64,64,Sugarhill Neighborhood @ SE 4th Street,29.634003,-82.316071,Southbound SE 4th ST @ Nearside SE 19th PL,,,0,,,,,
113,113,Southbound SE 15th Street @ SE 7th Avenue,29.645997,-82.305961,Southbound SE 15th ST @ Nearside SE 7th AVE,,,0,,,,,
10,10,Norman Hall,29.6467078,-82.3371755,Southbound SW 12th ST @ Farside SW 6th AVE,0,,0,,,,,
1044,1044,Kanapaha Middle School,29.607026,-82.42254,Northbound SW 75th ST @ Farside SW 51st BLVD,,,0,,,,,
1330,1330,Alachua County Jail (Westbound),29.680186,-82.27963,Westbound NE 39th AVE @ Farside Waldo RD,,,0,,,,,
1009,1009,Faith Presbyterian Church,29.6886514,-82.4057613,Eastbound NW 39th AVE @ Farside NW 63rd ST,,,0,,,,,
808,808,Hilton University of Florida Conference Center,29.635893,-82.37268,Southbound SW 34th ST @ Nearside SW 19th AVE,,,0,,,,,
1394,1394,Southbound NW 55th ST @ NW 14th AVE,29.6652863,-82.4016127,Southbound NW 55th ST @ Farside NW 14th AVE,,,0,,,,,
197,197,Ben Hill Griffin Stadium,29.651975,-82.349049,Eastbound W University AVE @ Farside Gale Lemeran*,,,0,,,,,
215,215,Williams Fellowship Hall,29.657373,-82.33077,Northbound NW 6th ST @ Nearside NW 7th AVE,,,0,,,,,
990,990,Magnolia Park Neighborhood,29.688786,-82.3929,Westbound NW 39th AVE @ Nearside NW 46th TER,,,0,,,,,
496,496,Forest Ridge Neighborhood,29.666822,-82.352564,Westbound NW 16th AVE @ Nearside NW 22nd ST,,,0,,,,,
1254,1254,Gator Corner Dining Facility @ Gale Lemerand,29.648167,-82.349618,Northbound Gale Lemerand DR @ Nearside Stadium RD,,,0,,,,,
308,308,Eastbound Hawthorne Road @ SE 26th Street,29.643847,-82.291551,Eastbound Hawthorne RD @ Nearside SE 26th ST,,,0,,,,,
746,746,Eden Park Apartments,29.688249,-82.307784,Eastbound NE 39th AVE @ Nearside NE 14th ST,,,0,,,,,
1018,1018,CVS @ Millhopper,29.674912,-82.389099,Southbound NW 43rd ST @ Nearside NW 23rd AVE,,,0,,,,,
1144,1144,Fraternity Row,29.6464468,-82.3579702,Northbound Fraternity Row @ Farside Museum RD,,,0,,,,,
900,900,16th Avenue Detailing & Window Tinting,29.66662,-82.310122,Westbound NE 16th AVE @ Nearside NE 12th ST,,,0,,,,,
544,544,NW 16th Avenue @ NW 20th Way,29.666595,-82.347805,Eastbound NW 16th AVE @ Nearside NW 20th WAY,,,0,,,,,
1622,1622,SW 6th St nearside SW 5th Ave,29.6470695,-82.3311777,Northbound SW 6th St @ nearside SW 5th Ave,0,,0,,,,,
1460,1460,Enclave 3,29.623522,-82.365763,Eastbound SW 32nd Terrace @ Traffic Circle,,,0,,,,,
1474,1474,Renaissance Jewelers,29.650563,-82.373853,Westbound SW 2nd Ave @ Farrside SW 34th St,,,0,,,,,
667,667,Summit House Condominiums,29.635747,-82.342482,Eastbound SW 16th AVE @ Farside SW 16th ST,,,0,,,,,
12,12,Norman Field @ SW 8th Avenue,29.644956,-82.338095,Westbound SW 8th AVE @ Farside SW 12th ST,,,0,,,,,
608,608,Northbound NE 25th Street @ NE 6th Avenue,29.657133,-82.292273,Northbound NE 25th ST @ Farside NE 6th AVE,,,0,,,,,
949,949,Lexington Crossing Apartments,29.616983,-82.362634,Southbound SW 27th ST @ Farside SW 35th PL,,,0,,,,,
877,877,Quick Mart @ NE 15th Street,29.688155,-82.305679,Northbound NE 15th ST @ Nearside NE 39th AVE,,,0,,,,,
1111,1111,Kenwood Neighborhood,29.620922,-82.422609,Southbound SW 75th ST @ Farside SW 36th AVE,,,0,,,,,
366,366,University House Apartments,29.658724,-82.339069,Northbound NW 13th ST @ Farside NW 7th AVE,,,0,,,,,
617,617,Westbound NE 8th Avenue @ NE 23nd Street,29.659288,-82.294666,Westbound NE 8th AVE @ Farside NE 23nd ST,,,0,,,,,
999,999,Northridge Neighborhood,29.686069,-82.430369,Southbound NW 83rd ST @ Nearside NW 36th AVE,,,0,,,,,
156,156,West University Ave @ NW 28th St,29.652095,-82.364396,Westbound W University AVE @ Nearside NW 28th ST,,,0,,,,,
815,815,Daily Mart,29.635731,-82.38821,Westbound SW 20th AVE @ Farside SW 42nd DR,,,0,,,,,
191,191,Westgate Plaza,29.650312,-82.370788,Eastbound SW 2nd AVE @ Farside SW 34th ST,,,0,,,,,
1248,1248,Parkside II Apartments,29.642813,-82.33558,Westbound Depot AVE @ Nearside SW 11th ST,,,0,,,,,
1275,1275,Westbound Newberry Road @ Fort Clarke Boulevard,29.660459,-82.43263,Westbound Newberry RD @ Nearside Fort Clarke BLVD,,,0,,,,,
1083,1083,Cricket Club Apartments,29.647935,-82.422297,Northbound SW 75th ST @ Farside SW 8th AVE,,,0,,,,,
239,239,Publix @ NW 39th Avenue,29.687499,-82.339152,Southbound NW 13th ST @ Farside NW 39th AVE,,,0,,,,,
420,420,Vida Springs Church,29.688495,-82.366151,Eastbound NW 39th AVE @ Nearside NW 29th TER,,,0,,,,,
902,902,Department of Children and Families,29.666603,-82.313759,Westbound NE 16th AVE @ Nearside NE 9th ST,,,0,,,,,
258,258,M&E Auto Specialists,29.682885,-82.338931,Northbound NW 13th ST @ Nearside NW 33rd AVE,,,0,,,,,
752,752,NE 15th Street @ NE 26th Avenue,29.676648,-82.305877,Southbound NE 15th ST @ Nearside NE 26th AVE,,,0,,,,,
917,917,Westbound SE 4th Avenue @ SE 8th Street,29.64828,-82.31636,Westbound SE 4th AVE @ Nearside SE 8th ST,,,0,,,,,
339,339,Northbound SE 27th Street @ SE 15th Avenue,29.637057,-82.28913,Northbound SE 27th ST @ Nearside SE 15th AVE,,,0,,,,,
636,636,Greenwich Green Apartments,29.617569,-82.374634,Eastbound SW 37th BLVD @ Nearside SW 34th ST,,,0,,,,,
1379,1379,Westbound NW 39th AVE @ NW 10th ST,29.688624,-82.335082,Westbound NW 39th AVE @ Nearside NW 10th ST,,,0,,,,,
324,324,Eastside High School,29.639837,-82.272389,Northbound SE 43rd ST @ Farside SE 13th AVE,,,0,,,,,
38,38,University Commons,29.63196,-82.361997,Eastbound Archer RD @ Nearside SW 23rd TER,,,0,,,,,
336,336,Faith Missionary Church,29.632658,-82.28569,Westbound SE 21st AVE @ Farside SE 30th Dr,,,0,,,,,
1364,1364,Southbound SE 19th TER @ SE 12th AVE,29.640368,-82.29943,Southbound SE 19th TER @ Nearside SE 12th AVE,,,0,,,,,
898,898,Rose Food Store,29.666562,-82.303197,Westbound NE 16th AVE @ Nearside NE 16th WAY,,,0,,,,,
89,89,Lincoln Estate Neighborhood,29.640199,-82.299548,Eastbound SE 12th AVE @ Nearside SE 19th TER,,,0,,,,,
680,680,Bridge House,29.611419,-82.341485,Southbound SW 13th ST @ Nearside SW 45th LN,,,0,,,,,
429,429,Glen Springs Apartments,29.682891,-82.351573,Southbound NW 21st ST @ Farside NW 32nd PL,,,0,,,,,
1238,1238,Sorority Row,29.644071,-82.335689,Northbound SW 11th ST @ Nearside E Panhellenic DR,,,0,,,,,
726,726,Bella Vista Village,29.688589,-82.325418,Westbound NW 39th AVE @ Nearside NW 1st TER,,,0,,,,,
20,20,Mt Vernon Apartments,29.633883,-82.358637,Westbound Archer RD @ Nearside SW 23rd DR,,,0,,,,,
100,100,GTEC,29.646204,-82.29622,Eastbound Hawthorne RD @ Nearside SE 24th ST,,,0,,,,,
560,560,Northbound NE 9th Street @ NE 8th Avenue,29.658987,-82.314705,Northbound NE 9th ST @ Nearside NE 8th AVE,,,0,,,,,
523,523,Shenandoah Neighborhood,29.674075,-82.425183,Eastbound NW 23rd AVE @ Farside NW 77th TER,,,0,,,,,
692,692,Village Square,29.630285,-82.339178,Northbound SW 13th ST @ Farside SW 25th PL,,,0,,,,,
1006,1006,Robin Lane Neighborhood,29.6886393,-82.4219068,Eastbound NW 39th AVE @ Farside NW 75th ST,,,0,,,,,
643,643,Ridgemar Apartments,29.620493,-82.372521,Northbound SW 34th ST @ Nearside SW 35th AVE,,,0,,,,,
399,399,The Home Depot @ NW 53rd Avenue,29.703167,-82.346494,Eastbound NW 53rd AVE @ Nearside NW 13th ST,,,0,,,,,
1469,1469,Eastbound University Avenue @ SW 23rd DR,29.652168,-82.358601,Eastbound W University AVE @ Nearside SW 23rd Dr,,,0,,,,,
1026,1026,Holy Faith Catholic Church,29.658381,-82.389439,Southbound NW 43rd ST @ Farside NW 8th AVE,,,0,,,,,
132,132,Westbound SE 22nd Avenue @ SE 12th Street,29.631855,-82.310984,Westbound SE 22nd AVE @ Farside SE 12th ST,,,0,,,,,
1084,1084,Reflections Apartments,29.650711,-82.422267,Northbound SW 75th ST @ Nearside SW 1st PL,,,0,,,,,
1192,1192,Turlington Hall,29.648395,-82.343558,Southbound Newell DR @ Farside Union RD,,,0,,,,,
55,55,Second Avenue Center Apartments,29.650175,-82.3299,Eastbound SW 2nd AVE @ Farside SW 6th ST,,,0,,,,,
850,850,GRU Administration Building,29.648317,-82.321369,Eastbound SE 4th AVE @ Farside SE 4th ST,,,0,,,,,
402,402,ABC Liquor Store @ NW 34th Street,29.709592,-82.354348,Southbound NW 34th ST @ Nearside NW 58th AVE,,,0,,,,,
992,992,Tire Plus @ NW 39th Avenue,29.688786,-82.397096,Westbound NW 39th AVE @ Nearside NW 51st ST,,,0,,,,,
4,4,The Continuum,29.650325,-82.329674,Westbound SW 2nd AVE @ Nearside SW 6th ST,,,0,,,,,
320,320,Kangaroo @ SE 35th Street,29.638559,-82.280695,Northbound SE 35th ST @ Nearside Hawthorne RD,,,0,,,,,
1504,1504,PPG Paints Store,29.652948,-82.330865,Southbound NW 6th ST @ Nearside University Avenue,,,0,,,,,
1079,1079,Westbound SW 8th Avenue @ SW 70th Terrace,29.645191,-82.416867,Westbound SW 8th AVE @ Farside SW 70th TER,,,0,,,,,
185,185,SIMED Health,29.6549,-82.388182,Eastbound Newberry RD @ Farside NW 43rd ST,,,0,,,,,
721,721,NE 39th Ave WB Farside NE 15th St,29.688498,-82.306536,Westbound NE 39th AVE @ Farside NE 15th ST,,,0,,,,,
738,738,Green Oak Villa,29.688419,-82.33675,Eastbound NW 39th AVE @ Farside NW 12th ST,,,0,,,,,
1138,1138,Arbor Apartments,29.620101,-82.358529,Westbound SW 35th PL @ Farside SW 23rd TER,,,0,,,,,
1459,1459,Kensington South @ 38th Terrace,29.633451,-82.3809735,Southbound SW 38th TER @ Nearside SW 20th AVE,0,,0,,,,,
585,585,Eastbound SE 25th Terrace @ E University Avenue,29.651786,-82.291256,Eastbound E University AVE @ Farside SE 25th TER,,,0,,,,,
427,427,Altrusa House of Gainesville,29.685773,-82.349537,Westbound NW 36th AVE @ Farside NW 20th ST,,,0,,,,,
1312,1312,Depot Ave nearside SW 3rd St,29.6439161,-82.3283348,Eastbound Depot AVE @ Farside SW 3rd ST,1,,0,,,,,
1283,1283,Ft Clarke Middle School,29.674172,-82.439133,Northbound Fort Clarke BLVD @ Nearside NW 23rd AVE,,,0,,,,,
966,966,Weimer Hall,29.64857,-82.347334,Eastbound Stadium RD @ Farside Gale Lemerand DR,,,0,,,,,
755,755,Highland Court Manor Neighborhood @ NE 23rd Avenue,29.673917,-82.311155,Westbound NE 23rd AVE @ Nearside NE 11th TER,,,0,,,,,
729,729,Southbound SW 6th Street @ NW 36th Avenue,29.685223,-82.330834,Southbound NW 6th ST @ Nearside NW 35th AVE,,,0,,,,,
1630,1630,SW 32nd Rd @ The Vibe (Westbound),29.623197,-82.3920138,Westbound SW 32nd Rd @ Nearside SW 45th St,0,,0,,,,,
166,166,Gainesville Health & Fitness,29.657328,-82.394103,Westbound Newberry RD @ Nearside NW 48th BLVD,,,0,,,,,
303,303,Alachua County School Board Administration Annex,29.651786,-82.301129,Eastbound E University AVE @ Farside SE 18th ST,,,0,,,,,
335,335,Westbound SE 21st Avenue @ SE 32nd Terrace,29.632664,-82.283656,Westbound SE 21st AVE @ Farside SE 32nd ST,,,0,,,,,
1377,1377,CVS - NW 39th Ave @ NW 13th St,29.688621,-82.339716,Westbound NW 39th AVE @ Farside NW 13th ST,,,0,,,,,
159,159,Fire Station @ W University Ave,29.651982,-82.376318,Westbound W University AVE @ Nearside NW 36th ST,,,0,,,,,
1612,1612,Town of Tioga,29.65653,-82.482504,Westbound NW Newberry Rd @ Farside SW 131st St,,,0,,,,,
1001,1001,Santa Fe College @ NW 83rd Street,29.680709,-82.430392,Southbound NW 83rd ST @ Nearside Administration RD,,,0,,,,,
482,482,University of Florida Energy Research,29.627895,-82.359309,Southbound SW 23rd TER @ Farside Archer RD,,,0,,,,,
1447,1447,Gardenia Gardens,29.659135,-82.302674,Eastbound NE 8th AVE @ Farside NE 17th ST,,,0,,,,,
133,133,Gainesville Housing Authority,29.633971,-82.315961,Northbound SE 4th ST @ Farside SE 19th PL,,,0,,,,,
1072,1072,Sparrow Apartments,29.645065,-82.421338,Eastbound SW 8th AVE @ Farside SW 75th ST,,,0,,,,,
1560,1560,Eastwood Meadows,29.64243,-82.271588,Northbound SE 44th ST @ Farside SE 10th PL,,,0,,,,,
1392,1392,Northbound NW 55th St @ NW 9th Ln,29.6603661,-82.4014717,Northbound NW 55th ST @ Nearside NW 9th LN,,,0,,,,,
108,108,SE 24th Street at Hawthorne Road,29.646148,-82.293949,Southbound SE 24th ST @ Nearside Hawthorne RD,,,0,,,,,
502,502,Zion Evangelical Lutheran Church,29.667092,-82.373357,Westbound NW 16th BLVD @ Farside NW 34th ST,,,0,,,,,
1113,1113,Tower Village,29.612393,-82.422636,Southbound SW 75th ST @ Farside SW 45th PL,,,0,,,,,
1193,1193,Rawlings Hall,29.646608,-82.343572,Southbound Newell DR @ Nearside McCarty DR,,,0,,,,,
776,776,Spring Hill Church,29.632621,-82.320267,Northbound Williston RD @ Farside SE 1st ST,,,0,,,,,
223,223,NW 6th St NW 21st Ln,29.672169,-82.330727,Northbound NW 6th ST @ Nearside NW 22nd AVE,,,0,,,,,
724,724,Westbound NE 39th Ave at Main St - Gsville Nissan,29.688531,-82.319097,Westbound NE 39th AVE @ Nearside N Main ST,,,0,,,,,
623,623,Westbound NE 13th Street @ NE 8th Avenue,29.659376,-82.308036,Westbound NE 8th AVE @ Nearside NE 13th ST,,,0,,,,,
510,510,Suburban Apartments,29.674235,-82.391874,Westbound NW 23rd AVE @ Nearside NW 46th TER,,,0,,,,,
1381,1381,Publix - NW 39th AVE @ NW 13th ST,29.688431,-82.340422,Eastbound NW 39th AVE @ Nearside NW 13th ST,,,0,,,,,
1626,1626,SW 43rd St @ Cracker Barrel,29.6171772,-82.3891192,Northbound SW 43rd St @ Farside SW Archer Rd,0,,0,,,,,
1209,1209,Oxford Terrace Apartments,29.6432257,-82.3337333,Southbound SW 9th ST @ Nearside SW Depot AVE,,,0,,,,,
408,408,Northbound NW 23rd Terrace @ US Hwy 441,29.715036,-82.358708,Northbound NW 23rd TER @ Nearside NW 13th ST,,,0,,,,,
913,913,Southbound SE 11th Street @ SE 2nd Avenue,29.65031,-82.311613,Southbound SE 11th ST @ Nearside SE 2nd AVE,,,0,,,,,
768,768,Friends of the Library Alachua County,29.656048,-82.325088,Southbound N Main ST @ Farside NE 6th AVE,,,0,,,,,
382,382,Ridgeview Baptist Church,29.685662,-82.347437,Eastbound NW 36th AVE @ Nearside NW 19th ST,,,0,,,,,
783,783,Chevron Gas Station @ Williston Road,29.635095,-82.317764,Southbound Williston RD @ Farside SE 4th ST,0,,0,,,,,
1601,1601,Markets West (Eastbound),29.6379503,-82.4208262,Eastbound SW 17th RD Farside SW 74th Drive,,,0,,,,,
1631,1631,Inner Road Westbound,29.6474024,-82.3408354,Westbound Inner Rd Near Fine Arts Building,0,,0,,,,,
909,909,Episcopal Children's Services,29.656544,-82.308494,Southbound Waldo RD @ Farside NE 8th AVE,,,0,,,,,
248,248,Gainesville High School,29.667953,-82.339253,Southbound NW 13th ST @ Farside NW 18th AVE,,,0,,,,,
238,238,CVS @ NW 13th Street,29.690166,-82.339194,Southbound NW 13th ST @ Farside NW 41st AVE,,,0,,,,,
1103,1103,Tower Hill,29.653548,-82.422532,Southbound NW 75th ST @ Nearside W University AVE,,,0,,,,,
868,868,Gainesville Christian Center,29.66645,-82.305939,Eastbound NE 16th AVE @ Nearside NE 15th ST,,,0,,,,,
1592,1592,Pizza Hut Archer Rd Eastbound,29.624111,-82.375328,Eastbound SW Archer Rd @ Farside SW 35th Blvd,,,0,,,,,
1359,1359,Gainesville Healthcare Center,29.637382,-82.342875,Northbound SW 16th ST @ Nearside Circle of Hope,,,0,,,,,
1284,1284,Ft Clarke Middle School,29.673509,-82.439334,Southbound Fort Clarke BLVD @ Farside NW 23rd AVE,,,0,,,,,
1384,1384,Metrocorp Center,29.688822,-82.386074,Westbound NW 39th AVE @ Nearside NW 43rd ST,,,0,,,,,
13,13,Beaty Towers,29.644929,-82.340175,Westbound Museum Rd @ Farside SW 13th St,,,0,,,,,
1174,1174,Lacrosse Field,29.637587,-82.365174,Eastbound Hull RD @ Nearside Natural Area DR,,,0,,,,,
739,739,Eastbound NW 39th Avenue @ NW 10th Street,29.688421,-82.334462,Eastbound NW 39th AVE @ Farside NW 10th ST,,,0,,,,,
134,134,Norwood Neighborhood (North),29.636261,-82.317134,Northbound SE 4th St @ Nearside SE 14th Ln,,,0,,,,,
1007,1007,Unicorn Hill Farm,29.688679,-82.416157,Eastbound NW 39th AVE @ Nearside NW 69th ST,,,0,,,,,
733,733,Bel Air Apartments,29.676726,-82.330878,Southbound NW 6th ST @ Farside NW 26th AVE,,,0,,,,,
280,280,American Auto Insurance,29.661249,-82.331002,Southbound NW 6th ST @ Nearside NW 10th AVE,,,0,,,,,
563,563,MLK Center and Citizens Field,29.659261,-82.308213,Eastbound NE 8th AVE @ Farside NE 13th ST,,,0,,,,,
489,489,Southbound SW 23rd Street @ Williston Road,29.613806,-82.355183,Southbound SW 23rd ST @ Nearside Williston RD,,,0,,,,,
682,682,Budget Inn,29.611868,-82.341109,Northbound SW 13th ST @ Nearside Williston RD,,,0,,,,,
1555,1555,Marshall's @ Plaza Blvd,29.627726,-82.383254,Eastbound Plaza Blvd @ Farside SW 62nd Blvd,,,0,,,,,
469,469,Commuter Lot Parking Garage @ Gale Lemerand,29.642341,-82.350346,Northbound Gale Lemerand DR @ Farside Mowry RD,,,0,,,,,
1495,1495,Passage Family Church,29.671629,-82.305909,Southbound NE 15th St @ Nearside NE 20th Pl,,,0,,,,,
1499,1499,NE 15th St @ NE 3rd Ave Nearside,29.653654,-82.305737,Northbound NE 15th St @ Nearside NE 3rd Ave,,,0,,,,,
1126,1126,Haystacks Housing Complex,29.613121,-82.393946,Eastbound Archer RD @ Nearside SW 47th TER,,,0,,,,,
452,452,Gainesville Place Apartments @ SW 35th Place,29.619799,-82.364741,Westbound SW 35th PL @ Nearside SW 28th TER,,,0,,,,,
797,797,Hume Hall,29.644951,-82.352202,Westbound Museum RD @ Farside Gale Lemerand DR,,,0,,,,,
323,323,Chevron Food Mart @ SE 43rd Street,29.636216,-82.272412,Northbound SE 43rd ST @ Farside Hawthorne RD,,,0,,,,,
473,473,Reitz Union,29.64514,-82.346983,Southbound McCarty DR @ Nearside Museum RD,1,,0,,,,,
28,28,Bonefish Grill Seafood Restaurant @ Butler Plaza,29.624804,-82.377613,Westbound SW 35th BLVD @ Farside Archer RD,,,0,,,,,
196,196,Pressly Stadium,29.650446,-82.355431,Eastbound SW 2nd AVE @ Farside Woodlawn DR,,,0,,,,,
683,683,Meridian Behavioral Healthcare (Northbound),29.613107,-82.340904,Northbound SW 13th ST @ Nearside Williston RD,,,0,,,,,
1505,1505,Planned Furnishings,29.65192,-82.330772,Northbound SW 6th ST @ Nearside University Avenue,,,0,,,,,
66,66,Eastbound SE 22nd Avenue @ SE 12th Street,29.631789,-82.3106,Eastbound SE 22nd AVE @ Nearside SE 12th ST,,,0,,,,,
849,849,Hume Hall (Eastbound),29.644837,-82.351988,Eastbound Museum RD @ Nearside Gale Lemerand DR,,,0,,,,,
1067,1067,Carriage House Lane,29.630587,-82.420423,Westbound SW 24th AVE @ Nearside SW 73rd TER,,,0,,,,,
664,664,UF Health Shands North Tower,29.639817,-82.342006,Southbound Newell DR @ Nearside SW Archer RD,,,0,,,,,
165,165,Orthopedic Institute,29.656458,-82.39186,Westbound Newberry RD @ Farside NW 43rd ST,,,0,,,,,
171,171,Oaks Mall @ NW 62nd Blvd,29.656792,-82.408988,Southbound NW 62nd ST @ Nearside NW 4th PL,,,0,,,,,
619,619,Bartley Temple United Methodist Church,29.659676,-82.299812,Northbound NE 19th ST @ Farside NE 8th AVE,,,0,,,,,
661,661,Seacoast Bank @ SW 37th Boulevard,29.619314,-82.379226,Southbound SW 37th BLVD @ Farside SW 38th ST,,,0,,,,,
742,742,Bella Vista Village Eastbound,29.688335,-82.325246,Eastbound NW 39th AVE @ Farside NW 1st TER,,,0,,,,,
985,985,Thorn Brook Shops,29.675062,-82.388855,Northbound NW 43rd ST @ Farside NW 16th BLVD,,,0,,,,,
1455,1455,North Walmart Supercenter,29.709916,-82.355824,Northbound NW 23rd ST @ Nearside NW 62nd AVE,1,,0,,,,,
786,786,Sweetwater on 16th Apartments (Northbound),29.6304711,-82.3241038,Westbound SE 16th AVE @ Farside SE Williston RD,0,,0,,,,,
1378,1378,Westbound NW 39th AVE @ NW 12th ST,29.688623,-82.337154,Westbound NW 39th AVE @ Nearside NW 12th ST,,,0,,,,,
1374,1374,Westbound NW 39th AVE @ NW 19th TER,29.688635,-82.347967,Westbound NW 39th AVE @ Nearside NW 19th TER,,,0,,,,,
1078,1078,Gordon Manor Neighborhood,29.645216,-82.415379,Eastbound SW 67th TER @ Nearside SW 8th AVE,,,0,,,,,
703,703,US Post Office @ Main St,29.6640224,-82.3244543,Northbound N Main ST @ Nearside NE 14th AVE,,,0,,,,,
1273,1273,SW 38th Terr nearside SW 20th Ave,29.633806,-82.380826,Northbound SW 38th Terrace @ SW 20th Avenue,,,0,,,,,
827,827,Lakewood Villas Apartments,29.646326,-82.400655,Southbound SW 62nd BLVD @ Farside SW 52nd St,,,0,,,,,
316,316,SE 35th St @ SE 21st Avenue,29.632543,-82.280937,Eastbound SE 21st AVE @ Farside SE 35th ST,,,0,,,,,
384,384,Girls Place of Alachua County,29.68863,-82.351327,Westbound NW 39th AVE @ Nearside NW 21st ST,,,0,,,,,
44,44,Frazier Rogers Hall (Eastbound),29.644771,-82.345681,Eastbound Museum Rd @ Farside Center Drive,,,0,,,,,
1473,1473,Fire Station,29.651128,-82.377021,Westbound SW 2nd Ave @ Farside SW 36th St,,,0,,,,,
837,837,The Park Apartments,29.633951,-82.377716,Eastbound SW 20th AVE @ Nearside SW 37th WAY,,,0,,,,,
753,753,Smokey Bear Park,29.674433,-82.305919,Southbound NE 15th ST @ Nearside NE 23rd AVE,,,0,,,,,
956,956,Old Archer Road @ SW 34th Street,29.626106,-82.372174,Westbound Old Archer RD @ Nearside SW 34th ST,,,0,,,,,
387,387,Walnut Creek Neighborhood,29.688675,-82.360317,Westbound NW 39th AVE @ Farside NW 25th TER,,,0,,,,,
433,433,Brookwood Terrace,29.676485,-82.348049,Eastbound NW 23rd BLVD @ Farside NW 16th TER,,,0,,,,,
1373,1373,CVS @ SW 13th St,29.6358722,-82.3391716,Northbound SW 13th ST @ Nearside SW 16th AVE,1,,0,,,,,
485,485,Southwood Apartments,29.620786,-82.355937,Southbound SW 23rd TER @ Farside SW 34 PL,,,0,,,,,
243,243,Verizon Shop,29.677474,-82.339253,Southbound NW 13th ST @ Nearside NW 26th PL,,,0,,,,,
1548,1548,Sam's Club,29.622999,-82.383453,Eastbound SW 33rd PL @ Nearside SW 37th Blvd,,,0,,,,,
1581,1581,Brain Institute Northbound,29.64189,-82.3436638,Brain Institute Newell Drive ( northbound),0,,0,,,,,
208,208,Bo Diddley Community Plaza,29.651871,-82.322744,Eastbound E University AVE @ Nearside E 3st ST,,,0,,,,,
405,405,Pine Ridge Apartments,29.709679,-82.35963,Northbound NW 23rd TER @ Nearside NW 25th TER,,,0,,,,,
591,591,Compassionate Outreach,29.648327,-82.272498,Southbound SE 43rd ST @ Nearside SE 4th AVE,,,0,,,,,
1439,1439,Cohens Temple,29.655976,-82.305789,Northbound NE 15th ST @ Nearside NE 5th PL,,,0,,,,,
432,432,Cobblestone Apartments,29.678118,-82.349246,Eastbound NW 23rd ST @ Farside NW 28th CIR,,,0,,,,,
1556,1556,The Ridge @ SW 38th TER southbound,29.6315487,-82.3809919,Southbound SW 38th TER @ Nearside SW 24th AVE,,,0,,,,,
1062,1062,Linton Oaks Neighborhood @ SW 61st Street,29.643025,-82.408221,Southbound SW 61st ST @ Nearside SW 10th PL,,,0,,,,,
455,455,Casablanca East Apartments,29.619771,-82.361514,Eastbound SW 35th PL @ Farside SW 27th TER,,,0,,,,,
374,374,UF Health Homecare,29.674074,-82.342774,Westbound NW 23rd AVE @ Nearside NW 16th TER,,,0,,,,,
962,962,Keys Residential Complex,29.6482508,-82.3547462,Eastbound Stadium Rd @ Farside Woodlawn Dr,,,0,,,,,
439,439,NW 13th St @ Nearside NW 3rd Pl Southbound,29.654477,-82.339359,Southbound NW 13th ST @ Nearside NW 3rd PL,,,0,,,,,
1277,1277,Legacy @ Fort Clarke Apartments,29.667466,-82.435114,Northbound Fort Clarke BLVD @ Farside NW 15th PL,,,0,,,,,
217,217,Big Ron's Yoga,29.660995,-82.330803,Northbound NW 6th ST @ Nearside NW 10th AVE,,,0,,,,,
107,107,Health Department,29.649086,-82.294941,Southbound Alachua County Health Department @ Far*,,,0,,,,,
825,825,The Earl Apartments,29.650056,-82.407791,Southbound SW 62nd BLVD @ Farside NW 4th PL,,,0,,,,,
416,416,Pizza Hut @ NW 34th Street,29.700335,-82.37026,Southbound NW 34th ST @ Nearside NW 49th AVE,,,0,,,,,
337,337,Lana's Place,29.632697,-82.289072,Westbound SE 21st AVE @ Nearside SE 27th ST,,,0,,,,,
704,704,Kangaroo @ N Main St,29.666398,-82.324394,Northbound N Main ST @ Nearside NE 16th AVE,,,0,,,,,
36,36,Capstone Quarters Apartments,29.629747,-82.366625,Eastbound Archer RD @ Farside Surge Area DR,,,0,,,,,
161,161,Plaza Royale,29.652709,-82.381423,Westbound Newberry RD @ Farside NW 36th DR,,,0,,,,,
1061,1061,Linton Oaks Neighborhood @ SW 63rd Terrace,29.645167,-82.410758,Northbound SW 63rd TER @ Nearside SW 8th AVE,,,0,,,,,
146,146,Holiday Inn @ W University Avenue,29.652186,-82.338973,Westbound W University AVE @ Nearside SW 13th ST,,,0,,,,,
188,188,Regal Royal Park Stadium 16,29.652001,-82.380226,Eastbound Newberry RD @ Farside SW 38th ST,,,0,,,,,
468,468,Parking & Transportation Services,29.639791,-82.350387,Northbound Gale Lemerand DR @ Farside Mowry RD,,,0,,,,,
6,6,720 SW 2nd Ave,29.650335,-82.33279,Westbound SW 2nd AVE @ Nearside SW 8th ST,,,0,,,,,
127,127,Lincoln Estates Neighborhood,29.640328,-82.305742,Westbound SE 12th AVE @ Nearside SE 15th ST,,,0,,,,,
925,925,The HUB,29.64853,-82.34496,Eastbound Stadium RD @ Nearside Buckman DR,1,,0,,,,,
142,142,Seagle Building,29.652076,-82.328427,Westbound W University AVE @ Farside W 3rd ST,,,0,,,,,
220,220,Medical Marijuana Treatment Center,29.666341,-82.330768,Northbound NW 6th ST @ Nearside NW 16th AVE,,,0,,,,,
587,587,Fred Cone Park,29.651768,-82.28767,Eastbound E University AVE @ Farside SE 27th ST,,,0,,,,,
109,109,Phase III Supply,29.647011,-82.297228,Westbound Hawthorne RD @ Nearside SE 21st ST,,,0,,,,,
129,129,McPherson Recreational Center,29.633733,-82.305909,Southbound SE 15th ST @ Nearside SE 22nd AVE,,,0,,,,,
85,85,Lincoln Estate Neighborhood,29.640245,-82.305449,Eastbound SE 12th AVE @ Farside SE 15th ST,,,0,,,,,
343,343,Dollar General,29.645231,-82.293693,Westbound Hawthorne RD @ Nearside SE 24th ST,,,0,,,,,
67,67,Eastbound SE 22nd Avenue @ SE 13th Street,29.631796,-82.308693,Eastbound SE 22nd AVE @ Nearside SE 13th ST,,,0,,,,,
116,116,Waldo Rd @ SE 7th Avenue,29.645842,-82.311006,Westbound SE 7th AVE @ Farside SE 11th ST,,,0,,,,,
723,723,Highland Court,29.688502,-82.310905,Westbound NE 39th AVE @ Nearside NE 11th TER,,,0,,,,,
1285,1285,Southbound Fort Clarke Boulevard @ Eagle Point,29.668913,-82.43714,Southbound Fort Clarke BLVD @ Nearside NW 17th PL,,,0,,,,,
249,249,NW 16th Ave NW 13th St,29.666801,-82.340521,Westbound NW 16th AVE @ Farside NW 13th ST,,,0,,,,,
186,186,Life South Blood Center,29.654297,-82.386555,Eastbound Newberry RD @ Nearside NW 39th ST,,,0,,,,,
728,728,Stephen Foster Elementary School,29.687605,-82.330845,Southbound NW 6th ST @ Farside NW 39th Ave,,,0,,,,,
851,851,Eastbound SE 4th Avenue @ SE 8th Street,29.648137,-82.316559,Eastbound SE 4th AVE @ Nearside SE 8th ST,,,0,,,,,
16,16,Shands Hospital @ Center Drive,29.640205,-82.34626,Southbound Center DR @ Nearside Mowry RD,,,0,,,,,
1008,1008,Greystone Community,29.6886506,-82.4110918,Eastbound NW 39th AVE @ Nearside NW 63rd ST,,,0,,,,,
332,332,Southbound SE 35th Street @ SE 16th Avenue,29.636636,-82.280843,Southbound SE 35th ST @ Nearside SE 16th AVE,,,0,,,,,
1542,1542,The Polos Southwest Entrance,29.613578,-82.359939,Eastbound SW 40th Pl. @ Nearside SW 25th Ter,,,0,,,,,
953,953,Gainesville Place Apartments,29.623475,-82.365501,Northbound Gainesville Place Apartments @ Farside*,,,0,,,,,
515,515,Hickory Woods Neighborhood,29.67429,-82.41516,Westbound NW 23rd AVE @ Nearside NW 68th TER,,,0,,,,,
1614,1614,Celebration Pointe SW 45th St & SW 31st Pl,29.624398,-82.394318,Southbound SW 45th St @ Nearside SW 31st Place,,,0,,,,,
543,543,Forest Ridge Neighborhood,29.666632,-82.353084,Eastbound NW 16th AVE @ Nearside NW 22nd ST,,,0,,,,,
715,715,Smokey Bear Park,29.674499,-82.305763,Northbound NE 15th ST @ Farside NE 23rd AVE,,,0,,,,,
260,260,Auto Zone @ NW 13th Street,29.689456,-82.338859,Northbound NW 13th ST @ Farside NW 39th AVE,,,0,,,,,
790,790,Parklands Care Center,29.6366883,-82.335734,Westbound SW 16th AVE @ Farside SW 10th TER,0,,0,,,,,
434,434,Direct Auto Insurance,29.664539,-82.339265,Southbound NW 13th ST @ Farside NW 14th AVE,,,0,,,,,
311,311,Southbound SE 27th Street @ SE 15th Avenue,29.637071,-82.28927,Southbound SE 27th ST @ Farside SE 15th AVE,,,0,,,,,
1478,1478,Tractor Supply Co @ NW 53rd Avenue,29.703324,-82.346442,Westbound NW 53rd AVE @ Nearside NW 19th ST,,,0,,,,,
229,229,Northbound NW 6th Street @ NW 36th Avenue,29.6854008,-82.3306584,Northbound NW 6th ST @ Nearside NW 36th AVE,0,,0,,,,,
762,762,Brakes 4 Less,29.665515,-82.324591,Southbound N Main ST @ Farside NE 16th AVE,,,0,,,,,
553,553,Downtown Library,29.651766,-82.322318,Northbound SE 3rd ST @ Nearside E University AVE,,,0,,,,,
1400,1400,Westbound SW 24th AVE @ SW 84th ST,29.630614,-82.431857,Westbound SW 24th AVE @ Nearside SW 84th ST,,,0,,,,,
1027,1027,Best Buy @ Butler Plaza,29.621328,-82.380919,Southbound SW 37th BLVD @ Nearside Archer RD,,,0,,,,,
820,820,Spyglass Apartments,29.646795,-82.400843,Northbound SW 62nd BLVD @ Nearside SW 4th PL,,,0,,,,,
592,592,Lake Forest Trails Neighborhood,29.646066,-82.27251,Southbound SE 43rd ST @ Nearside SE 6th AVE,,,0,,,,,
1286,1286,Legacy @ Fort Clarke Apartments,29.667198,-82.435087,Southbound Fort Clarke BLVD @ Nearside NW 15th PL,,,0,,,,,
532,532,NW 23rd Ave @ NW 43rd St,29.673993,-82.390196,Eastbound NW 23rd AVE @ Nearside NW 43rd ST,,,0,,,,,
1388,1388,Sable Chase Neighborhood,29.688538,-82.374539,Eastbound NW 39th AVE @ Farside NW 35th ST,,,0,,,,,
1500,1500,NE 15th St @ NE 7th Ave,29.657879,-82.305915,Southbound NE 15th St @ Nearside NE 7th Ave,,,0,,,,,
3,3,Westbound SW 2nd Avenue @ SW 2nd Street,29.650397,-82.326459,Westbound SW 2nd AVE @ Nearside SW 2nd ST,,,0,,,,,
788,788,Aldi @ SW 16th Avenue,29.6363278,-82.328566,Westbound SW 16th AVE @ Nearside SW 6th ST,0,,0,,,,,
678,678,Residence Inn,29.615843,-82.340786,Southbound SW 13th ST @ Nearside Williston RD,,,0,,,,,
189,189,Center for Independent Living,29.651061,-82.377396,Eastbound SW 2nd AVE @ Nearside SW 36th ST,,,0,,,,,
1050,1050,Bellamy Grand,29.628397,-82.422371,Northbound SW 75th ST @ Nearside SW 24th AVE,,,0,,,,,
602,602,Pine Meadows Apartments,29.651991,-82.289878,Westbound E University AVE @ Nearside NE 26th TER,,,0,,,,,
1035,1035,Kanapaha Botanical Gardens,29.608681,-82.402953,Westbound Archer RD @ Nearside SW 56th TER,,,0,,,,,
810,810,Campus USA,29.634223,-82.374907,Westbound SW 20th AVE @ Farside SW 34th ST,,,0,,,,,
1053,1053,Galen College of Nursing,29.630901,-82.418044,Eastbound SW 24th AVE @ Farside SW 70th TER,,,0,,,,,
479,479,Campus Edge Condominiums,29.63705,-82.358917,Southbound SW 23rd DR @ Farside Hull RD,,,0,,,,,
403,403,Kangaroo Gas @ NW 34th Street,29.706605,-82.356652,Southbound NW 34th ST @ Nearside NW 23rd TER,,,0,,,,,
1236,1236,Cabana Beach Apartments (SW 52nd St),29.635913,-82.397884,Northbound SW 52nd BLVD @ Farside SW 20th AVE,,,0,,,,,
385,385,Sonic Drive In,29.688627,-82.354962,Westbound NW 39th AVE @ Nearside NW 22nd DR,,,0,,,,,
816,816,Canopy Apartments,29.636959,-82.390186,Westbound SW 20th AVE @ Farside SW 43rd ST,,,0,,,,,
1012,1012,Autumn Woods Neighborhood,29.688574,-82.394883,Eastbound NW 39th AVE @ Nearside NW 48th TER,,,0,,,,,
1047,1047,Vet Mem PK,29.61491,-82.422495,Northbound SW 75th ST @ Nearside SW 42nd PL,,,0,,,,,
522,522,The Pentecostals of Gainesville,29.674223,-82.428413,Eastbound NW 23rd AVE @ Farside NW 83rd ST,,,0,,,,,
818,818,Redpoint Apartments,29.641168,-82.39814,Northbound SW 62nd BLVD @ Farside SW 20th AVE,,,0,,,,,
364,364,Publix @ NW 13th St and W Univ Ave,29.653749,-82.339079,Northbound NW 13th ST @ Nearside W University AVE,,,0,,,,,
301,301,Eastbound University Avenue @ SE 15th Street,29.651804,-82.304736,Eastbound E University AVE @ Farside SE 15th ST,,,0,,,,,
795,795,The Retreat Apartments,29.636485,-82.33557,Eastbound SW 16th AVE @ Farside SW 10th TER,,,0,,,,,
1102,1102,Advance Auto Parts,29.655418,-82.422514,Southbound NW 75th ST @ Farside NW 4th BLVD,,,0,,,,,
225,225,Northbound NW 6th Street @ NW 26th Avenue,29.6764714,-82.3306776,Northbound NW 6th ST @ Nearside NW 26th AVE,0,,0,,,,,
701,701,CVS Pharmacy @ N Main Street,29.660498,-82.324449,Northbound N Main ST @ Nearside NE 10th AVE,,,0,,,,,
1221,1221,Eastbound NW 23rd Avenue @ NW 13th Street,29.673891,-82.33804,Eastbound NW 23rd AVE @ Farside NW 13th ST,,,0,,,,,
368,368,LifeSouth Community Blood Center @ NW 13th Street,29.664005,-82.339053,Northbound NW 13th ST @ Nearside NW 14th AVE,,,0,,,,,
322,322,E Hawthorne Road @ SE 39th Terrace,29.636666,-82.275829,Eastbound Hawthorne RD @ Farside SE 39th TER,,,0,,,,,
1274,1274,Krystal @ Newberry Road,29.659836,-82.424709,Westbound Newberry RD @ Farside NW 76th ST,,,0,,,,,
418,418,Southbound NW 34th Street @ NW 41st Avenue,29.6909,-82.372383,Southbound NW 34th ST @ Farside NW 41st AVE,,,0,,,,,
56,56,Eastbound SW 2nd Ave @ SW 2nd St,29.650203,-82.326684,Eastbound SW 2nd AVE @ Nearside SW 2nd ST,,,0,,,,,
380,380,Kiwanis Park,29.685625,-82.351484,Northbound NW 21st ST @ Nearside NW 36th AVE,,,0,,,,,
819,819,Rockwood Villas Apartments,29.644826,-82.399248,Northbound SW 62nd BLVD @ Farside SW 9th PL,,,0,,,,,
915,915,Triangle Club,29.648287,-82.3126,Westbound SE 4th AVE @ Farside SE 11th ST,,,0,,,,,
437,437,All Star Automotive,29.657774,-82.33929,Southbound NW 13th ST @ Nearside NW 7th AVE,,,0,,,,,
669,669,Liv+ Apartments 13th St,29.634414,-82.339508,Southbound SW 13th ST @ Farside SW 18th PL,,,0,,,,,
1223,1223,Forest Meadows Funeral Home,29.673845,-82.331648,Eastbound NW 23rd TER @ Nearside NW 6th ST,,,0,,,,,
538,538,Covenant Church,29.666661,-82.36891,Eastbound NW 16th AVE @ Nearside NW 31st TER,,,0,,,,,
1033,1033,Westbound Archer Road @ SW 50th Street,29.612137,-82.396352,Westbound Archer RD @ Nearside SW 50th ST,,,0,,,,,
481,481,University Commons,29.630268,-82.361586,Southbound SW 23rd TER @ Farside Archer RD,,,0,,,,,
823,823,Hampton Oaks Apartments,29.652416,-82.408796,Northbound SW 62nd BLVD @ Nearside NW 1st PL,,,0,,,,,
1326,1326,UF Counseling and Wellness Center,29.642148,-82.368834,Eastbound Radio RD @ Farside Bledsoe DR,,,0,,,,,
978,978,Lenox Place Apartments,29.660922,-82.388936,Northbound NW 43rd ST @ Nearside NW 9th Pl,,,0,,,,,
1280,1280,Hidden Oak Elementary School,29.670811,-82.439103,Southbound Fort Clarke BLVD @ Nearside NW 23rd AVE,,,0,,,,,
1380,1380,Westbound NW 39th AVE @ NW 7th ST,29.688639,-82.332443,Westbound NW 39th AVE @ Nearside NW 7th ST,,,0,,,,,
1165,1165,Hills Mini Storage,29.685727,-82.290364,Westbound NE 39th Ave @ Farside Waldo Rd,,,0,,,,,
122,122,Lincoln Estates,29.644228,-82.299412,Southbound SE 19th TER @ Farside SE 8th AVE,,,0,,,,,
829,829,Forest View Apartments,29.641553,-82.398379,Southbound SW 62nd BLVD @ Nearside SW 20th AVE,,,0,,,,,
1185,1185,Microbiology/Cell Science Building,29.6402616,-82.3641002,Northbound Museum RD @ Farside Radio Rd,,,0,,,,,
379,379,Northbound NW 21st Avenue @ NW 33rd Avenue,29.683322,-82.351488,Northbound NW 21st ST @ Nearside NW 33rd AVE,,,0,,,,,
935,935,Westbound SW 2nd Avenue @ SW 30th Street,29.650481,-82.367269,Westbound SW 2nd AVE @ Nearside SW 30th ST,,,0,,,,,
447,447,Hunters Run,29.612789,-82.359331,Northbound SW 25th TER @ Farside Williston RD,,,0,,,,,
1493,1493,Butler Plaza Transfer Station,29.625154,-82.38789,Westbound SW 30th Place @ Farside SW 42nd Street,1,,0,,,,,
143,143,Santa Fe College Charles L. Blount Center,29.652077,-82.330034,Westbound W University AVE @ Nearside NW 6th ST,,,0,,,,,
1239,1239,Caroline Manor Affordable Housing,29.652003,-82.291919,Westbound E University AVE @ Nearside NE 25th ST,,,0,,,,,
529,529,First Church of the Nazarene,29.673993,-82.396932,Eastbound NW 23rd AVE @ Nearside NW 51st ST,,,0,,,,,
1022,1022,Southbound NW 43rd Street @ NW 15th Place,29.666789,-82.389113,Southbound NW 43rd ST @ Nearside NW 15th PL,,,0,,,,,
754,754,NE 23rd Ave Farside NE 14th St Westbound,29.673894,-82.308067,Westbound NE 23rd AVE @ Farside NE 14th ST,,,0,,,,,
1170,1170,Pine Ridge Apartments,29.706292,-82.356987,Northbound NW 34th ST @ Nearside NW 23rd TER,,,0,,,,,
516,516,Quail Ridge Neighborhood,29.674303,-82.417978,Westbound NW 23rd AVE @ Nearside NW 71st ST,,,0,,,,,
1176,1176,Fifield Hall,29.637577,-82.362182,Eastbound Hull RD @ Nearside Mowry RD,,,0,,,,,
490,490,The Polos Apartments,29.613174,-82.356828,Westbound Williston RD @ Farside SW 23rd ST,,,0,,,,,
1125,1125,Hailey Forest Condominiums,29.611973,-82.396169,Eastbound Archer RD @ Farside SW 50th ST,,,0,,,,,
984,984,Millhopper Plaza,29.67246,-82.388864,Northbound NW 43rd ST @ Nearside NW 16th BLVD,,,0,,,,,
459,459,SW 23rd Terrace @ SW 35th Place,29.621813,-82.355831,Northbound SW 23rd TER @ Farside SW 32nd PL,,,0,,,,,
722,722,Eden Park at Ironwood,29.688509,-82.308827,Westbound NE 39th AVE @ Farside NE 14th ST,,,0,,,,,
168,168,Capital City Bank @ Newberry Road,29.659086,-82.399163,Westbound Newberry RD @ Nearside N 8th AVE,,,0,,,,,
1019,1019,Millhopper Plaza,29.672248,-82.389123,Southbound NW 43rd ST @ Farside NW 23rd AVE,,,0,,,,,
341,341,Alachua County Sheriffs Department,29.641906,-82.289168,Northbound SE 27th ST @ Nearside Hawthorne Rd,,,0,,,,,
571,571,Northbound NE 24th Street @ NE 8th Avenue,29.659161,-82.293795,Eastbound NE 8th AVE @ Nearside NE 24th ST,,,0,,,,,
662,662,McKnight Brain Institute,29.642057,-82.343813,Southbound Newell DR @ Farside Museum RD,,,0,,,,,
1629,1629,SW 43rd St @ Texas Roadhouse,29.6174457,-82.3893686,Southbound SW 43rd St @ Nearside SW Archer Rd,0,,0,,,,,
175,175,Oaks Mall SW 62nd Blvd,29.658046,-82.408785,Northbound NW 62nd ST @ Nearside Newberry RD,1,,0,,,,,
84,84,Northbound SE 15th Street @ SE 13th Place,29.639045,-82.305796,Northbound SE 15th ST @ Farside SE 13th PL,,,0,,,,,
326,326,Eastwood Meadows,29.642434,-82.271473,Northbound SE 44th ST @ Farside SE 10th PL,,,0,,,,,
676,676,Chop Stix Cafe,29.620913,-82.340023,Southbound SW 13th ST @ Farside SW 14th DR,,,0,,,,,
204,204,Innovation Square North,29.651968,-82.331959,Eastbound W University AVE @ Nearside SW 7th ST,,,0,,,,,
1118,1118,Arredondo Farms,29.600282,-82.418395,Eastbound Archer RD @ Farside SW 75th ST,,,0,,,,,
1146,1146,Beta Theta Pi across Springs,29.6485434,-82.3564382,Eastbound Fraternity Row @ Nearside Woodlawn DR,,,0,,,,,
478,478,IFAS Lab,29.63828,-82.35697,Westbound Mowry RD @ Farside Hull RD,,,0,,,,,
760,760,Wash King (Southbound),29.66734,-82.321898,Southbound NE 2nd ST @ Nearside NE 16th AVE,,,0,,,,,
1402,1402,Westbound SW 87th Dr @ SW 91st St,29.62839,-82.436398,Westbound SW 87th DR @ Nearside SW 91st ST,,,0,,,,,
153,153,Westbound University Avenue @ NW 22nd Street,29.65213,-82.35529,Westbound W University AVE @ Nearside NW 22nd ST,,,0,,,,,
198,198,St. Augustine Catholic Church,29.651977,-82.346434,Eastbound W University AVE @ Nearside Fletcher DR,,,0,,,,,
245,245,Plaza Verde @ NW 13th St Southbound,29.67272,-82.339249,Southbound NW 13th ST @ Farside NW 23rd AVE,,,0,,,,,
1123,1123,Broken Arrow Bluff Community,29.608152,-82.403389,Eastbound Archer RD @ Nearside SW 56th TER,,,0,,,,,
1222,1222,Hearing Aid Gainesville,29.673867,-82.335108,Eastbound NW 23rd TER @ Nearside NW 10th ST,,,0,,,,,
1105,1105,Cricket Club Apartments,29.648113,-82.422538,Southbound SW 75th ST @ Nearside SW 8th AVE,,,0,,,,,
115,115,Williams Elementary School,29.64584,-82.309492,Westbound SE 7th AVE @ Nearside SE 12th TER,,,0,,,,,
465,465,Campus Edge Condominiums,29.637101,-82.358801,Northbound SW 23rd DR @ Nearside Hull RD,,,0,,,,,
312,312,Durelle Heights Neighborhood,29.634589,-82.289253,Southbound SE 27th ST @ Farside SE 18th AVE,,,0,,,,,
1428,1428,FDOT Operations Center,29.673438,-82.263966,Eastbound NW 39th AVE @ Nearside NE 52 ST,,,0,,,,,
1617,1617,SW 24th Avenue & School House Road (Eastbound),29.630503,-82.445867,Eastbound SW 24th Avenue @ Nearside School House Road,,,0,,,,,
292,292,The Cotton Club,29.645754,-82.315215,Eastbound SE 7th AVE @ Nearside SE 9th ST,,,0,,,,,
484,484,Towne Parc Apartments,29.623684,-82.356161,Southbound SW 23rd TER @ Nearside SW 31 PL,,,0,,,,,
511,511,First Church of the Nazarene,29.674215,-82.396915,Westbound NW 23rd AVE @ Nearside NW 51st ST,,,0,,,,,
25,25,Westbound Archer Road @ SW 34th Street,29.627758,-82.371538,Westbound Archer RD @ Nearside SW 34th ST,,,0,,,,,
327,327,The Verdant Cove,29.642223,-82.2726,Southbound SE 43rd ST @ Nearside SE 10th PL,,,0,,,,,
158,158,Westgate Plaza,29.652165,-82.372949,Westbound W University AVE @ Farside SW 34th ST,,,0,,,,,
1069,1069,Sunrise Subdivision,29.6354866,-82.422394,Northbound SW 75th ST @ Farside SW 19th PL,0,,0,,,,,
205,205,The Continuum,29.651925,-82.329437,Eastbound W University AVE @ Farside W 6th ST,,,0,,,,,
679,679,Meridian Behavioral Healthcare,29.613399,-82.341148,Southbound SW 13th ST @ Farside Williston RD,,,0,,,,,
446,446,UF Health Archer Road,29.63905,-82.344089,Westbound Archer RD @ Farside SW 16th ST,1,,0,,,,,
1042,1042,Publix @ Tower Square on SW 75th Street,29.600168,-82.420515,Northbound SW 75th ST @ Farside Archer RD,,,0,,,,,
912,912,Waldo Road @ NE 1st Avenue,29.652721,-82.311092,Southbound Waldo RD @ Nearside E University AVE,,,0,,,,,
1624,1624,SW 6th St & SW 3rd Ave,29.6488947,-82.3308489,Northbound SW 6th St @ nearside SW 3rd Ave,0,,0,,,,,
139,139,City Hall,29.652054,-82.323598,Westbound E University AVE @ Nearside NE 1st ST,,,0,,,,,
1396,1396,Eastbound SW 24th Ave @ Majestic Oaks,29.64007,-82.405336,Eastbound SW 24th AVE @ Nearside SW 61st ST,,,0,,,,,
830,830,Cabana Beach Apartments (SW 20th Ave),29.639517,-82.39527,Eastbound SW 20th AVE @ Farside SW 52nd ST,,,0,,,,,
981,981,Northbound NW 43rd Street @ NW 16th Place,29.666959,-82.388857,Northbound NW 43rd ST @ Nearside NW 16th PL,,,0,,,,,
972,972,Laurels Apartments,29.611504,-82.371563,Northbound SW 34th ST @ Farside SW 47th AVE,,,0,,,,,
1287,1287,Paddock Club Apartments,29.663386,-82.43366,Southbound Fort Clarke BLVD @ Nearside NW 8th AVE,,,0,,,,,
407,407,Hampton Court Apartments,29.714336,-82.360139,Northbound NW 23rd TER @ Nearside NW 65th PL,,,0,,,,,
546,546,NW 16th Ave @ NW 13th St,29.6665645,-82.3402284,Eastbound NW 16th AVE @ Nearside NW 13th ST,,,0,,,,,
435,435,State Farm Insurance @ NW 13th Street,29.663014,-82.339266,Southbound NW 13th ST @ Farside NW 12th AVE,,,0,,,,,
1268,1268,Brandywine Apartments,29.630199,-82.365372,Westbound Old Archer RD @ Farside SW 28th PL,,,0,,,,,
1305,1305,Best Buy @ Butler Plaza,29.621519,-82.380752,Northbound SW 37th BLVD @ Nearside Windmeadows BL*,,,0,,,,,
1020,1020,Southbound NW 43rd Street @ NW 19th Avenue,29.670059,-82.389128,Southbound NW 43rd ST @ Nearside NW 19th AVE,,,0,,,,,
163,163,Allstate Insurance @ Newberry Road,29.654595,-82.386667,Westbound Newberry RD @ Nearside NW 39th ST,,,0,,,,,
457,457,Hickory Place Apartments,29.620128,-82.356812,Eastbound SW 35th PL @ Nearside SW 23rd TER,,,0,,,,,
1004,1004,Windsor Assisted Living,29.685793,-82.430225,Northbound NW 83rd ST @ Farside NW 36th AVE,,,0,,,,,
1048,1048,Kanapaha Park,29.619526,-82.422449,Northbound SW 75th ST @ Nearside SW 36th AVE,,,0,,,,,
1619,1619,Queen of Peace Church (Eastbound),29.630593,-82.460325,Eastbound SW 24th Ave @ Nearside SW 110 Terrace,,,0,,,,,
1628,1628,SW 52nd St @ Cabana Beach,29.635854,-82.3981222,Southbound SW 52nd St @ Nearside SW 18th Pl,0,,0,,,,,
18,18,Shands Hospital @ Davis Cancer Pavilion,29.637023,-82.349885,Westbound Archer RD @ Nearside Gale Lemerand DR,,,0,,,,,
568,568,Mount Zion Church of God,29.65964,-82.299921,Southbound NE 19th ST @ Nearside NE 8th AVE,,,0,,,,,
23,23,UF Surge Area Drive,29.63054,-82.365763,Westbound Archer RD @ Nearside Surge Area DR,,,0,,,,,
1186,1186,Lakeside Residential Building,29.6412528,-82.3642235,Southbound Museum RD @ Farside Radio RD,,,0,,,,,
199,199,Keene Flint Hall,29.651982,-82.344247,Eastbound W University AVE @ Farside Buckman DR,,,0,,,,,
1097,1097,Oaks Mall,29.659514,-82.413875,Eastbound Newberry RD @ Nearside Oaks Mall,,,0,,,,,
1014,1014,Allstate Insurance,29.687731,-82.389071,Southbound NW 43rd ST @ Nearside NW 37th PL,,,0,,,,,
995,995,Summer Creek Neighborhood,29.688902,-82.410768,Westbound NW 39th AVE @ Nearside NW 64th ST,,,0,,,,,
1180,1180,Southwest Recreation Center,29.637786,-82.368346,Westbound Hull RD @ Nearside Bledsoe DR,,,0,,,,,
1593,1593,Social Security NB NW 13th St,29.696835,-82.338851,Northbound NW 13th St @ Farside 45th Ave,,,0,,,,,
1468,1468,N Main Post Office,29.664846,-82.325668,Westbound NW 14th Ave @ Farside Main Street,,,0,,,,,
293,293,Mt Moriah Baptist Church,29.645758,-82.312416,Eastbound SE 7th AVE @ Nearside SE 10th TER,,,0,,,,,
750,750,Southbound NE 15th Street @ NE 31 Avenue,29.681613,-82.305868,Southbound NE 15th ST @ Nearside NE 31st AVE,,,0,,,,,
1481,1481,Cancer/Genetics Research Complex,29.638354,-82.353572,Eastbound Mowry Rd @ Farside SW 23 Dr,,,0,,,,,
588,588,Morningside Nature Center,29.651773,-82.28012,Eastbound E University AVE @ Nearside SE SE 38th *,,,0,,,,,
1595,1595,UF Heart Health,29.639961,-82.339442,Southbound SW 13th St nearside SW 12th Ave,,,0,,,,,
1066,1066,KISS 105.3 FM Station,29.631028,-82.418071,Westbound SW 24th AVE @ Farside SW 70th TER,,,0,,,,,
700,700,Fire Stone @ N Main Street,29.658463,-82.324913,Northbound N Main ST @ Nearside NE 8th AVE,,,0,,,,,
362,362,Social 28 Apartments,29.649163,-82.339215,Northbound SW 13th ST @ Nearside SW 3rd AVE,,,0,,,,,
1594,1594,AT&T Store @ NW 4th Place,29.656272,-82.408713,NW 4th Pl Nearside NW 62nd Street,,,0,,,,,
539,539,Brywood Neighborhood,29.666647,-82.362483,Eastbound NW 16th AVE @ Farside NW 27th TER,,,0,,,,,
1117,1117,Tower Square @ SW 75th Street,29.60064,-82.421481,Southbound SW 75th ST @ Farside SW 58th PL,,,0,,,,,
1503,1503,Southbound Metcalfe Elementary School,29.668457,-82.305884,Southbound NE 15th ST @ Nearside NE 18th AVE,,,0,,,,,
103,103,Northbound SE 24th Street @ E University Avenue,29.651128,-82.293201,Northbound SE 24th ST @ Nearside E University AVE,,,0,,,,,
1094,1094,Clarion Inn,29.659342,-82.422241,Northbound SW 75th ST @ Nearside Newberry RD,,,0,,,,,
512,512,Northwest Baptist Church,29.6742,-82.402283,Westbound NW 23rd AVE @ Nearside NW 55th ST,,,0,,,,,
1320,1320,Airport,29.686084,-82.27632,Westbound Airport Access RD @ Farside NE 39th AVE,1,,0,,,,,
763,763,Publix @ N Main Street,29.663764,-82.324586,Southbound N Main ST @ Farside NE 14th AVE,,,0,,,,,
637,637,Aspen Ridge Apartments,29.618393,-82.372338,Northbound SW 34th ST @ Farside SW 37th BLVD,,,0,,,,,
278,278,NW 6th Street & NW 16th Avenue,29.666947,-82.330972,Southbound NW 6th ST @ Farside NW 16th AVE,,,0,,,,,
297,297,Eastbound SE 7th Avenue @ SE 15th Street,29.645724,-82.306015,Eastbound SE 7th AVE @ Nearside SE 15th ST,,,0,,,,,
520,520,Santa Fe,29.679628,-82.431876,Westbound Santa Fe College @ Farside Santa Fe Col*,1,,0,,,,,
464,464,Mt Vernon Apartments @ SW 23rd Drive,29.635773,-82.358792,Northbound SW 23rd DR @ Farside Archer RD,,,0,,,,,
1093,1093,Park Place Car Wash,29.656295,-82.421376,Westbound NW 4th BLVD @ Nearside SW 75th ST,,,0,,,,,
570,570,Eastbound NE 8th Avenue @ NE 22nd Street,29.659182,-82.296023,Eastbound NE 8th AVE @ Nearside NE 22nd ST,,,0,,,,,
1235,1235,NE Walmart Supercenter,29.662839,-82.302207,Westbound NE 12th AVE @ Nearside Waldo RD,,,0,,,,,
554,554,Salvation Army,29.651848,-82.318251,Eastbound E University AVE @ Nearside E 7th ST,,,0,,,,,
677,677,The Landings Apartments,29.618568,-82.340371,Southbound SW 13th ST @ Nearside SW 36th PL,,,0,,,,,
710,710,Pointe 23 Apartments,29.673785,-82.317586,Eastbound NE 23rd AVE @ Nearside NE 7th ST,,,0,,,,,
207,207,Alachua County Office of the State Attorney,29.651862,-82.326017,Eastbound W University AVE @ Nearside SW 1st ST,,,0,,,,,
501,501,NW 30th Terrace @ NW 16th Avenue,29.666862,-82.367675,Westbound NW 16th AVE @ Farside NW 30th TER,,,0,,,,,
495,495,Westbound NW 16th Avenue @ NW 20th Way,29.666841,-82.349253,Westbound NW 16th AVE @ Nearside NW 20th WAY,,,0,,,,,
361,361,Norman Hall,29.647158,-82.339203,Northbound SW 13th ST @ Nearside SW 5th AVE,,,0,,,,,
365,365,Theory Apartments,29.6562569,-82.3390819,Northbound NW 13th ST @ Farside NW 5th AVE,,,0,,,,,
1322,1322,Rocky Point Apartments,29.621652,-82.370304,Westbound SW 35th PL @ Nearside SW 34th ST,,,0,,,,,
448,448,Westbound SW 40th Place @ NW 26th Terrace,29.613651,-82.360105,Westbound SW 40th PL @ Nearside SW 26th TER,,,0,,,,,
624,624,East End Eatery,29.659389,-82.309766,Westbound NE 8th AVE @ Nearside NE 12th St,,,0,,,,,
1304,1304,Seacoast Bank @ Archer Road,29.619763,-82.379447,Northbound SW 39th BLVD @ Nearside Archer RD,,,0,,,,,
505,505,B'Nai Israel School & Day Care,29.670967,-82.381747,Westbound NW 16th BLVD @ Farside NW 38th TER,,,0,,,,,
745,745,Highland Court Manor,29.688255,-82.310561,Eastbound NE 39th AVE @ Nearside NE 12th ST,,,0,,,,,
370,370,Gainesville High School,29.668482,-82.339024,Northbound NW 13th ST @ Farside NW 18th AVE,,,0,,,,,
857,857,Episcopal Children's Services Northbound,29.656539,-82.308253,Northbound Waldo RD @ Nearside NE 8th AVE,,,0,,,,,
1110,1110,Tower Road Library,29.626092,-82.422571,Southbound SW 75th ST @ Farside SW 26th AVE,,,0,,,,,
986,986,Bank of America @ NW 43rd Street,29.677745,-82.388858,Northbound NW 43rd ST @ Nearside NW 27th LN,,,0,,,,,
926,926,Leigh Hall,29.6506378,-82.3446731,Northbound Buckman DR @ Nearside W University AVE,,,0,,,,,
699,699,Alachua County Property Appraiser,29.65634,-82.324921,Northbound N Main ST @ Farside NE 6th AVE,,,0,,,,,
950,950,Lexington Crossing Apartments,29.615368,-82.362445,Southbound SW 27 PL @ Nearside SW 38th PL,,,0,,,,,
720,720,Fearnside Family Services Center Northbound,29.686176,-82.305717,Northbound NE 15th ST @ Nearside NE 39th AVE,,,0,,,,,
688,688,Tanglewood Apartments,29.623303,-82.339345,Northbound SW 13th ST @ Nearside SW 14th DR,,,0,,,,,
601,601,Fred Cone Park,29.651992,-82.287071,Westbound E University AVE @ Nearside SE 27th ST,,,0,,,,,
989,989,Pinewood Apartments,29.688786,-82.390347,Westbound NW 39th AVE @ Farside NW 43rd ST,,,0,,,,,
1179,1179,Pressly Softball Stadium,29.637694,-82.365243,Westbound Hull RD @ Farside Natural Area DR,,,0,,,,,
806,806,Southwest Recreation Center,29.638113,-82.369364,Southbound Bledsoe DR @ Nearside Hull RD,,,0,,,,,
167,167,SunTrust Bank @ Newberry Road,29.658334,-82.396898,Westbound Newberry RD @ Farside NW 51st ST,,,0,,,,,
422,422,Uptown Village Apartments,29.688411,-82.35714,Eastbound NW 39th AVE @ Farside NW 24th BLVD,,,0,,,,,
719,719,Village Green Apartments,29.683444,-82.30573,Northbound NE 15th ST @ Farside NE 31st AVE,,,0,,,,,
294,294,Tools for Schools,29.645728,-82.310869,Eastbound SE 11th ST @ Farside SE 7th AVE,,,0,,,,,
404,404,Pine Ridge Apartments,29.707734,-82.357905,Northbound NW 23rd TER @ Nearside NW 57th PL,,,0,,,,,
8,8,Courtyard Apartments,29.6495614,-82.3371876,Southbound SW 12th ST @ Farside SW 2nd AVE,0,,0,,,,,
480,480,Mt Vernon Apartments,29.635714,-82.358907,Southbound SW 23rd DR @ Nearside Archer RD,,,0,,,,,
878,878,Ironwood Golf Course,29.687791,-82.29661,Eastbound NE 39th AVE @ Farside Waldo RD,,,0,,,,,
378,378,Misty Oaks Apartments,29.68161,-82.351504,Northbound NW 21st ST @ Farside NW 31st ST,,,0,,,,,
357,357,SE 7th Avenue @ SE 10th Terrace,29.645856,-82.312451,Westbound SE 7th AVE @ Farside SE 10th TER,,,0,,,,,
412,412,Northwood Pines Neighborhood,29.705193,-82.359716,Southbound NW 34th ST @ Nearside NW 23rd TER,,,0,,,,,
250,250,Gainesville High School Tennis Courts,29.666822,-82.343063,Westbound NW 16th AVE @ Nearside NW 16th TER,,,0,,,,,
713,713,NE 23rd Avenue @ NE 11th Terrace,29.673758,-82.311133,Eastbound NE 23rd AVE @ Farside NE 11th TER,,,0,,,,,
162,162,Tire Kingdom @ Newberry Road,29.653808,-82.384512,Westbound Newberry RD @ Farside NW 39th RD,,,0,,,,,
1154,1154,Graham Hall,29.6460169,-82.3504445,Southbound Gale Lemerand DR @ Nearside Museum Rd,0,,0,,,,,
1252,1252,Plaza Health and Rehab,29.613287,-82.394175,Westbound Archer RD @ Farside SW 47th ST,,,0,,,,,
936,936,Westgate Plaza,29.650484,-82.370704,Westbound SW 2nd AVE @ Nearside SW 34th ST,,,0,,,,,
564,564,MLK Center,29.660445,-82.305716,Northbound Waldo RD @ Farside NE 8th AVE,,,0,,,,,
376,376,Cobblestone Apartments,29.678397,-82.349288,Westbound NW 23rd AVE @ Nearside NW 28th CIR,,,0,,,,,
177,177,Durant Estate,29.659434,-82.403171,Eastbound Newberry RD @ Farside NW 57th ST,,,0,,,,,
176,176,Panera Bread @ Newberry Road,29.659464,-82.407681,Eastbound Newberry RD @ Farside NW 62nd ST,,,0,,,,,
148,148,Smathers Library,29.652194,-82.343083,Westbound W University AVE @ Nearside NW 16th ST,,,0,,,,,
557,557,Northbound NE 9th Street @ NE 3rd Avenue,29.654205,-82.314684,Northbound NE 9th ST @ Farside NE 3rd AVE,,,0,,,,,
774,774,Treehouse Village Apartments,29.632727,-82.326077,Eastbound SE 16th AVE @ Farside S Main ST,,,0,,,,,
867,867,16th Avenue Detailing & Window Tinting (Eastbound),29.666458,-82.310607,Eastbound NE 16th AVE @ Nearside NE 12th ST,,,0,,,,,
35,35,Silver Creek Apartments,29.629078,-82.36817,Eastbound Archer RD @ Farside SW 34th ST,,,0,,,,,
406,406,Northbound NW 23rd Terrace @ NW 62nd Avenue,29.711336,-82.360175,Northbound NW 23rd TER @ Nearside NW 62nd AVE,,,0,,,,,
813,813,Kensington Apartments North,29.634123,-82.382798,Westbound SW 20th AVE @ Farside SW 38th TER,,,0,,,,,
1302,1302,Greenwich Green Apartments,29.617702,-82.374701,Westbound SW 39th BLVD @ Nearside SW 34th ST,,,0,,,,,
1288,1288,Eastbound Newberry Road @ Fort Clarke Boulevard,29.660235,-82.432204,Eastbound Newberry RD @ Farside Fort Clarke BLVD,,,0,,,,,
974,974,Dollar General,29.614818,-82.371923,Northbound SW 34th ST @ Farside SW 42 PL,,,0,,,,,
1099,1099,SUBWAY@ Newberry RD,29.659774,-82.41348,Westbound Newberry RD @ Nearside Oaks Mall,,,0,,,,,
333,333,Southbound Se 35th Street @ SE 18th Avenue,29.634792,-82.280864,Southbound SE 35th ST @ Farside SE 18th AVE,,,0,,,,,
1065,1065,Tower Oaks Glenn Apartments,29.63481,-82.414381,Westbound SW 24th AVE @ Farside SW 19th CT,,,0,,,,,
34,34,Direct Insurance @ Archer Road,29.627581,-82.371198,Eastbound Archer RD @ Farside SW 34th ST,,,0,,,,,
1407,1407,Eastbound SW 24th AVE @ SW 76th ST,29.630418,-82.423629,Eastbound SW 24th AVE @ Farside SW 76th ST,,,0,,,,,
581,581,Southbound NE 25th Street @ NE 3rd Place,29.654395,-82.292408,Southbound NE 25th ST @ Nearside NE 3rd PL,,,0,,,,,
727,727,Oasis Carwash,29.688606,-82.327849,Westbound NW 39th AVE @ Nearside NW 6th ST,,,0,,,,,
